{
  "cities": {
    "kavache": {
      "name": "Kavache",
      "lat": 70.73329104,
      "lng": 136.2166361,
      "population": -99,
      "iso2": "RU",
      "timezone": "Asia/Vladivostok"
    },
    "fortin falcon": {
      "name": "Fortin Falcon",
      "lat": -23.05028685,
      "lng": -59.84994918,
      "population": -99,
      "iso2": "PY",
      "timezone": "America/Asuncion"
    },
    "chernobyl": {
      "name": "Chernobyl",
      "lat": 51.38940716,
      "lng": 30.09887569,
      "population": 0,
      "iso2": "UA",
      "timezone": "Europe/Kiev"
    },
    "ambarchik": {
      "name": "Ambarchik",
      "lat": 69.65100568,
      "lng": 162.3335949,
      "population": 0,
      "iso2": "RU",
      "timezone": "Asia/Srednekolymsk"
    },
    "logashkino": {
      "name": "Logashkino",
      "lat": 70.85038983,
      "lng": 153.9000012,
      "population": 0,
      "iso2": "RU",
      "timezone": "Asia/Srednekolymsk"
    },
    "nordvik": {
      "name": "Nordvik",
      "lat": 74.01650148,
      "lng": 111.5100305,
      "population": 0,
      "iso2": "RU",
      "timezone": "Asia/Krasnoyarsk"
    },
    "ennadai": {
      "name": "Ennadai",
      "lat": 61.13328269,
      "lng": -100.883336,
      "population": 0,
      "iso2": "CA",
      "timezone": "America/Rankin_Inlet"
    },
    "agdam": {
      "name": "Agdam",
      "lat": 40.9052778,
      "lng": 45.5563889,
      "population": 0,
      "iso2": "AZ",
      "timezone": "Asia/Baku"
    },
    "qeqertasuaq": {
      "name": "Qeqertasuaq",
      "lat": 69.24416391,
      "lng": -53.56523854,
      "population": 7.5,
      "iso2": "GL",
      "timezone": "America/Godthab"
    },
    "montana": {
      "name": "Montana",
      "lat": 43.41400203,
      "lng": 23.23700161,
      "population": 47445,
      "iso2": "BG",
      "timezone": "Europe/Sofia"
    },
    "rusanovo": {
      "name": "Rusanovo",
      "lat": 70.59807362,
      "lng": 56.37229099,
      "population": 10,
      "iso2": "RU",
      "timezone": "Europe/Moscow"
    },
    "manily": {
      "name": "Manily",
      "lat": 62.54999208,
      "lng": 165.3000288,
      "population": 10,
      "iso2": "RU",
      "timezone": "Asia/Kamchatka"
    },
    "khakhar": {
      "name": "Khakhar",
      "lat": 57.66659507,
      "lng": 135.4300175,
      "population": 10,
      "iso2": "RU",
      "timezone": "Asia/Vladivostok"
    },
    "olenek": {
      "name": "Olenek",
      "lat": 68.52500205,
      "lng": 112.4500248,
      "population": 10,
      "iso2": "RU",
      "timezone": "Asia/Yakutsk"
    },
    "ust olensk": {
      "name": "Ust Olensk",
      "lat": 72.99778302,
      "lng": 119.7729295,
      "population": 10,
      "iso2": "RU",
      "timezone": "Asia/Yakutsk"
    },
    "sagastyr": {
      "name": "Sagastyr",
      "lat": 73.37793312,
      "lng": 126.5923521,
      "population": 10,
      "iso2": "RU",
      "timezone": "Asia/Yakutsk"
    },
    "menkere": {
      "name": "Menkere",
      "lat": 67.98860069,
      "lng": 123.3504964,
      "population": 10,
      "iso2": "RU",
      "timezone": "Asia/Yakutsk"
    },
    "terbyas": {
      "name": "Terbyas",
      "lat": 64.37608217,
      "lng": 120.5468949,
      "population": 10,
      "iso2": "RU",
      "timezone": "Asia/Yakutsk"
    },
    "chagda": {
      "name": "Chagda",
      "lat": 60.10001243,
      "lng": 133.8999816,
      "population": 10,
      "iso2": "RU",
      "timezone": "Asia/Khandyga"
    },
    "mikhaylova": {
      "name": "Mikhaylova",
      "lat": 75.09498863,
      "lng": 86.98243201,
      "population": 10,
      "iso2": "RU",
      "timezone": "Asia/Krasnoyarsk"
    },
    "starorybnoye": {
      "name": "Starorybnoye",
      "lat": 72.76660362,
      "lng": 104.8000008,
      "population": 10,
      "iso2": "RU",
      "timezone": "Asia/Krasnoyarsk"
    },
    "komsa": {
      "name": "Komsa",
      "lat": 61.86804405,
      "lng": 89.25774532,
      "population": 10,
      "iso2": "RU",
      "timezone": "Asia/Krasnoyarsk"
    },
    "numto": {
      "name": "Numto",
      "lat": 63.66671979,
      "lng": 71.33330969,
      "population": 10,
      "iso2": "RU",
      "timezone": "Asia/Yekaterinburg"
    },
    "gyda": {
      "name": "Gyda",
      "lat": 70.88142153,
      "lng": 78.46610429,
      "population": 10,
      "iso2": "RU",
      "timezone": "Asia/Yekaterinburg"
    },
    "indiga": {
      "name": "Indiga",
      "lat": 67.68975404,
      "lng": 49.01659483,
      "population": 10,
      "iso2": "RU",
      "timezone": "Europe/Moscow"
    },
    "matochkin shar": {
      "name": "Matochkin Shar",
      "lat": 73.26999163,
      "lng": 56.44969682,
      "population": 10,
      "iso2": "RU",
      "timezone": "Europe/Moscow"
    },
    "krasino": {
      "name": "Krasino",
      "lat": 70.73144845,
      "lng": 54.420799,
      "population": 10,
      "iso2": "RU",
      "timezone": "Europe/Moscow"
    },
    "il'pyrskiy": {
      "name": "Il'pyrskiy",
      "lat": 59.96738829,
      "lng": 164.1720053,
      "population": 10,
      "iso2": "RU",
      "timezone": "Asia/Kamchatka"
    },
    "bol'sheretsk": {
      "name": "Bol'sheretsk",
      "lat": 52.43898134,
      "lng": 156.3593859,
      "population": 10,
      "iso2": "RU",
      "timezone": "Asia/Kamchatka"
    },
    "utkholok": {
      "name": "Utkholok",
      "lat": 57.55040061,
      "lng": 157.2333378,
      "population": 10,
      "iso2": "RU",
      "timezone": "Asia/Kamchatka"
    },
    "strelka": {
      "name": "Strelka",
      "lat": 61.86698468,
      "lng": 152.2501794,
      "population": 10,
      "iso2": "RU",
      "timezone": "Asia/Magadan"
    },
    "karamken": {
      "name": "Karamken",
      "lat": 60.20041974,
      "lng": 151.166628,
      "population": 10,
      "iso2": "RU",
      "timezone": "Asia/Magadan"
    },
    "siglan": {
      "name": "Siglan",
      "lat": 59.03372093,
      "lng": 152.4165775,
      "population": 10,
      "iso2": "RU",
      "timezone": "Asia/Magadan"
    },
    "tukchi": {
      "name": "Tukchi",
      "lat": 57.36697512,
      "lng": 139.5000016,
      "population": 10,
      "iso2": "RU",
      "timezone": "Asia/Vladivostok"
    },
    "trofimovsk": {
      "name": "Trofimovsk",
      "lat": 72.59968874,
      "lng": 127.0336824,
      "population": 10,
      "iso2": "RU",
      "timezone": "Asia/Yakutsk"
    },
    "zhilinda": {
      "name": "Zhilinda",
      "lat": 70.13368939,
      "lng": 114.0000077,
      "population": 10,
      "iso2": "RU",
      "timezone": "Asia/Yakutsk"
    },
    "natara": {
      "name": "Natara",
      "lat": 68.41061627,
      "lng": 123.9255,
      "population": 10,
      "iso2": "RU",
      "timezone": "Asia/Yakutsk"
    },
    "tunguskhaya": {
      "name": "Tunguskhaya",
      "lat": 64.90044293,
      "lng": 125.2500187,
      "population": 10,
      "iso2": "RU",
      "timezone": "Asia/Yakutsk"
    },
    "shalaurova": {
      "name": "Shalaurova",
      "lat": 73.22037437,
      "lng": 143.1833427,
      "population": 10,
      "iso2": "RU",
      "timezone": "Asia/Vladivostok"
    },
    "nyukzha": {
      "name": "Nyukzha",
      "lat": 56.53121218,
      "lng": 121.613083,
      "population": 10,
      "iso2": "RU",
      "timezone": "Asia/Yakutsk"
    },
    "agapa": {
      "name": "Agapa",
      "lat": 71.45037905,
      "lng": 89.24999385,
      "population": 10,
      "iso2": "RU",
      "timezone": "Asia/Krasnoyarsk"
    },
    "podkamennaya": {
      "name": "Podkamennaya",
      "lat": 61.59950747,
      "lng": 90.12363562,
      "population": 10,
      "iso2": "RU",
      "timezone": "Asia/Krasnoyarsk"
    },
    "ulkan": {
      "name": "Ulkan",
      "lat": 55.90039797,
      "lng": 107.7833329,
      "population": 10,
      "iso2": "RU",
      "timezone": "Asia/Irkutsk"
    },
    "yessey": {
      "name": "Yessey",
      "lat": 68.48373842,
      "lng": 102.1666215,
      "population": 10,
      "iso2": "RU",
      "timezone": "Asia/Krasnoyarsk"
    },
    "laryak": {
      "name": "Laryak",
      "lat": 61.10119163,
      "lng": 80.25136999,
      "population": 10,
      "iso2": "RU",
      "timezone": "Asia/Yekaterinburg"
    },
    "peregrebnoye": {
      "name": "Peregrebnoye",
      "lat": 62.96699506,
      "lng": 65.08593909,
      "population": 10,
      "iso2": "RU",
      "timezone": "Asia/Yekaterinburg"
    },
    "varnek": {
      "name": "Varnek",
      "lat": 69.73014813,
      "lng": 60.06355831,
      "population": 10,
      "iso2": "RU",
      "timezone": "Europe/Moscow"
    },
    "pakhachi": {
      "name": "Pakhachi",
      "lat": 60.5815851,
      "lng": 169.0499808,
      "population": 10,
      "iso2": "RU",
      "timezone": "Asia/Kamchatka"
    },
    "omchak": {
      "name": "Omchak",
      "lat": 61.63327801,
      "lng": 147.9166971,
      "population": 10,
      "iso2": "RU",
      "timezone": "Asia/Magadan"
    },
    "khorgo": {
      "name": "Khorgo",
      "lat": 73.48330406,
      "lng": 113.6300044,
      "population": 10,
      "iso2": "RU",
      "timezone": "Asia/Yakutsk"
    },
    "zemlya bunge": {
      "name": "Zemlya Bunge",
      "lat": 74.89830813,
      "lng": 142.1050105,
      "population": 10,
      "iso2": "RU",
      "timezone": "Asia/Vladivostok"
    },
    "zvezdnyy": {
      "name": "Zvezdnyy",
      "lat": 70.9565849,
      "lng": -179.5899789,
      "population": 10,
      "iso2": "RU",
      "timezone": "Asia/Anadyr"
    },
    "gueppi": {
      "name": "Gueppi",
      "lat": -0.116596254,
      "lng": -75.22996647,
      "population": 10,
      "iso2": "PE",
      "timezone": "America/Lima"
    },
    "soldado bartra": {
      "name": "Soldado Bartra",
      "lat": -2.516139711,
      "lng": -75.76660038,
      "population": 10,
      "iso2": "PE",
      "timezone": "America/Lima"
    },
    "andoas": {
      "name": "Andoas",
      "lat": -2.902059307,
      "lng": -76.40247888,
      "population": 10,
      "iso2": "PE",
      "timezone": "America/Lima"
    },
    "puca urco": {
      "name": "Puca Urco",
      "lat": -2.332791729,
      "lng": -71.91668034,
      "population": 10,
      "iso2": "PE",
      "timezone": "America/Lima"
    },
    "el porvenir": {
      "name": "El Porvenir",
      "lat": 9.541686355,
      "lng": -78.97196299,
      "population": 10,
      "iso2": "PA",
      "timezone": "America/Panama"
    },
    "djado": {
      "name": "Djado",
      "lat": 21.01498212,
      "lng": 12.30750688,
      "population": 10,
      "iso2": "NE",
      "timezone": "Africa/Niamey"
    },
    "dawra": {
      "name": "Dawra",
      "lat": 27.46290895,
      "lng": -12.99218917,
      "population": 10,
      "iso2": "MA",
      "timezone": "Africa/El_Aaiun"
    },
    "hodrogo": {
      "name": "Hodrogo",
      "lat": 48.96642845,
      "lng": 96.7832808,
      "population": 10,
      "iso2": "MN",
      "timezone": "Asia/Hovd"
    },
    "sierra mojada": {
      "name": "Sierra Mojada",
      "lat": 27.28757082,
      "lng": -103.2871945,
      "population": 10,
      "iso2": "MX",
      "timezone": "America/Matamoros"
    },
    "bir mogrein": {
      "name": "Bir Mogrein",
      "lat": 25.23330345,
      "lng": -11.58330876,
      "population": 10,
      "iso2": "MR",
      "timezone": "Africa/Nouakchott"
    },
    "magta lajar": {
      "name": "Magta Lajar",
      "lat": 17.00039512,
      "lng": -13.49998763,
      "population": 10,
      "iso2": "MR",
      "timezone": "Africa/Nouakchott"
    },
    "chegga": {
      "name": "Chegga",
      "lat": 25.38040041,
      "lng": -5.779967897,
      "population": 10,
      "iso2": "MR",
      "timezone": "Africa/Nouakchott"
    },
    "zillah": {
      "name": "Zillah",
      "lat": 28.55041363,
      "lng": 17.58336055,
      "population": 10,
      "iso2": "LY",
      "timezone": "Africa/Tripoli"
    },
    "nord": {
      "name": "Nord",
      "lat": 81.71662579,
      "lng": -17.80003524,
      "population": 10,
      "iso2": "GL",
      "timezone": "America/Godthab"
    },
    "timmiarmiut": {
      "name": "Timmiarmiut",
      "lat": 62.53327476,
      "lng": -42.21671025,
      "population": 10,
      "iso2": "GL",
      "timezone": "America/Godthab"
    },
    "berenice": {
      "name": "Berenice",
      "lat": 23.94599184,
      "lng": 35.48418005,
      "population": 10,
      "iso2": "EG",
      "timezone": "Africa/Cairo"
    },
    "lagunas": {
      "name": "Lagunas",
      "lat": -20.98286782,
      "lng": -69.68330245,
      "population": 10,
      "iso2": "CL",
      "timezone": "America/Santiago"
    },
    "big beaver house": {
      "name": "Big Beaver House",
      "lat": 52.94998374,
      "lng": -89.88328394,
      "population": 10,
      "iso2": "CA",
      "timezone": "America/Winnipeg"
    },
    "island lake": {
      "name": "Island Lake",
      "lat": 53.96658836,
      "lng": -94.7665776,
      "population": 10,
      "iso2": "CA",
      "timezone": "America/Winnipeg"
    },
    "uruara": {
      "name": "Uruara",
      "lat": -3.82959959,
      "lng": -54.02999435,
      "population": 10,
      "iso2": "BR",
      "timezone": "America/Santarem"
    },
    "puerto heath": {
      "name": "Puerto Heath",
      "lat": -12.49961302,
      "lng": -68.66656865,
      "population": 10,
      "iso2": "BO",
      "timezone": "America/Lima"
    },
    "villa martin": {
      "name": "Villa Martin",
      "lat": -20.76655027,
      "lng": -67.7833409,
      "population": 10,
      "iso2": "BO",
      "timezone": "America/La_Paz"
    },
    "erldunda": {
      "name": "Erldunda",
      "lat": -25.23330605,
      "lng": 133.1999727,
      "population": 10,
      "iso2": "AU",
      "timezone": "Australia/Darwin"
    },
    "newcastle waters": {
      "name": "Newcastle Waters",
      "lat": -17.55279295,
      "lng": 133.4672432,
      "population": 10,
      "iso2": "AU",
      "timezone": "Australia/Darwin"
    },
    "wiseman": {
      "name": "Wiseman",
      "lat": 67.4104706,
      "lng": -150.1074891,
      "population": 14,
      "iso2": "US",
      "timezone": "America/Anchorage"
    },
    "nikolski": {
      "name": "Nikolski",
      "lat": 52.93843406,
      "lng": -168.8676876,
      "population": 18,
      "iso2": "US",
      "timezone": "America/Nome"
    },
    "kovda": {
      "name": "Kovda",
      "lat": 66.690282,
      "lng": 32.87023108,
      "population": 20,
      "iso2": "RU",
      "timezone": "Europe/Moscow"
    },
    "cuya": {
      "name": "Cuya",
      "lat": -19.11667682,
      "lng": -70.13330082,
      "population": 20,
      "iso2": "CL",
      "timezone": "America/Santiago"
    },
    "grise fiord": {
      "name": "Grise Fiord",
      "lat": 76.44165061,
      "lng": -82.94998621,
      "population": 23,
      "iso2": "CA",
      "timezone": "America/Iqaluit"
    },
    "red devil": {
      "name": "Red Devil",
      "lat": 61.76099632,
      "lng": -157.3125273,
      "population": 24,
      "iso2": "US",
      "timezone": "America/Anchorage"
    },
    "lumbala nguimbo": {
      "name": "Lumbala Nguimbo",
      "lat": -14.09961871,
      "lng": 21.44002437,
      "population": 25,
      "iso2": "AO",
      "timezone": "Africa/Luanda"
    },
    "lake minchumina": {
      "name": "Lake Minchumina",
      "lat": 63.88283063,
      "lng": -152.3121865,
      "population": 32,
      "iso2": "US",
      "timezone": "America/Anchorage"
    },
    "false pass": {
      "name": "False Pass",
      "lat": 54.85121136,
      "lng": -163.415023,
      "population": 35,
      "iso2": "US",
      "timezone": "America/Nome"
    },
    "nuevo rocafuerte": {
      "name": "Nuevo Rocafuerte",
      "lat": -0.932928854,
      "lng": -75.39998194,
      "population": 40,
      "iso2": "PE",
      "timezone": "America/Guayaquil"
    },
    "as sidr": {
      "name": "As Sidr",
      "lat": 30.67041343,
      "lng": 18.26662634,
      "population": 50,
      "iso2": "LY",
      "timezone": "Africa/Tripoli"
    },
    "dulan": {
      "name": "Dulan",
      "lat": 36.16658958,
      "lng": 98.26660111,
      "population": 50,
      "iso2": "CN",
      "timezone": "Asia/Urumqi"
    },
    "kingoonya": {
      "name": "Kingoonya",
      "lat": -30.89957518,
      "lng": 135.2999996,
      "population": 50,
      "iso2": "AU",
      "timezone": "Australia/Adelaide"
    },
    "mukhomornoye": {
      "name": "Mukhomornoye",
      "lat": 66.4170687,
      "lng": 173.333337,
      "population": 55,
      "iso2": "RU",
      "timezone": "Asia/Anadyr"
    },
    "nyingchi": {
      "name": "Nyingchi",
      "lat": 29.53329938,
      "lng": 94.41670691,
      "population": 55,
      "iso2": "CN",
      "timezone": "Asia/Urumqi"
    },
    "atka": {
      "name": "Atka",
      "lat": 52.19648968,
      "lng": -174.2004887,
      "population": 61,
      "iso2": "US",
      "timezone": "America/Adak"
    },
    "savissivik": {
      "name": "Savissivik",
      "lat": 76.01947624,
      "lng": -65.11248065,
      "population": 66,
      "iso2": "GL",
      "timezone": "America/Thule"
    },
    "pilot point": {
      "name": "Pilot Point",
      "lat": 57.56455996,
      "lng": -157.5691266,
      "population": 68,
      "iso2": "US",
      "timezone": "America/Anchorage"
    },
    "piso firme": {
      "name": "Piso Firme",
      "lat": -13.68295164,
      "lng": -61.86662195,
      "population": 72,
      "iso2": "BO",
      "timezone": "America/La_Paz"
    },
    "burwash landing": {
      "name": "Burwash Landing",
      "lat": 61.35037539,
      "lng": -139.0000017,
      "population": 73,
      "iso2": "CA",
      "timezone": "America/Whitehorse"
    },
    "nenana": {
      "name": "Nenana",
      "lat": 64.56379681,
      "lng": -149.0930032,
      "population": 75,
      "iso2": "US",
      "timezone": "America/Anchorage"
    },
    "nyac": {
      "name": "Nyac",
      "lat": 61.00414329,
      "lng": -159.9404806,
      "population": 75,
      "iso2": "US",
      "timezone": "America/Anchorage"
    },
    "ituni": {
      "name": "Ituni",
      "lat": 5.430016092,
      "lng": -58.24999516,
      "population": 75,
      "iso2": "GY",
      "timezone": "America/Guyana"
    },
    "churchill falls": {
      "name": "Churchill Falls",
      "lat": 53.52640851,
      "lng": -63.98067896,
      "population": 75,
      "iso2": "CA",
      "timezone": "America/Goose_Bay"
    },
    "hughes": {
      "name": "Hughes",
      "lat": 66.04918418,
      "lng": -154.2549878,
      "population": 78,
      "iso2": "US",
      "timezone": "America/Anchorage"
    },
    "teller": {
      "name": "Teller",
      "lat": 65.26359906,
      "lng": -166.3607864,
      "population": 83,
      "iso2": "US",
      "timezone": "America/Nome"
    },
    "uranium city": {
      "name": "Uranium City",
      "lat": 59.56655662,
      "lng": -108.6165849,
      "population": 89,
      "iso2": "CA",
      "timezone": "America/Regina"
    },
    "fox bay": {
      "name": "Fox Bay",
      "lat": -51.95058999,
      "lng": -60.08696314,
      "population": 90,
      "iso2": "FK",
      "timezone": "Atlantic/Stanley"
    },
    "burylbaytal": {
      "name": "Burylbaytal",
      "lat": 44.93874147,
      "lng": 74.03025102,
      "population": 92.5,
      "iso2": "KZ",
      "timezone": "Asia/Almaty"
    },
    "karluk": {
      "name": "Karluk",
      "lat": 57.57228558,
      "lng": -154.4550273,
      "population": 96,
      "iso2": "US",
      "timezone": "America/Anchorage"
    },
    "allakaket": {
      "name": "Allakaket",
      "lat": 66.56548342,
      "lng": -152.6454995,
      "population": 97,
      "iso2": "US",
      "timezone": "America/Anchorage"
    },
    "alert": {
      "name": "Alert",
      "lat": 82.48332318,
      "lng": -62.24998356,
      "population": 97.5,
      "iso2": "CA",
      "timezone": "America/Pangnirtung"
    },
    "wales": {
      "name": "Wales",
      "lat": 65.60959861,
      "lng": -168.0875027,
      "population": 99,
      "iso2": "US",
      "timezone": "America/Nome"
    },
    "mekoryuk": {
      "name": "Mekoryuk",
      "lat": 60.38864671,
      "lng": -166.1899372,
      "population": 99,
      "iso2": "US",
      "timezone": "America/Nome"
    },
    "grytviken": {
      "name": "Grytviken",
      "lat": -54.28057697,
      "lng": -36.50798893,
      "population": 99,
      "iso2": "GS",
      "timezone": "Atlantic/South_Georgia"
    },
    "circle": {
      "name": "Circle",
      "lat": 65.82589032,
      "lng": -144.0605197,
      "population": 100,
      "iso2": "US",
      "timezone": "America/Anchorage"
    },
    "emmonak": {
      "name": "Emmonak",
      "lat": 62.77698081,
      "lng": -164.5229916,
      "population": 100,
      "iso2": "US",
      "timezone": "America/Nome"
    },
    "vorontsovo": {
      "name": "Vorontsovo",
      "lat": 71.69832257,
      "lng": 83.56419104,
      "population": 100,
      "iso2": "RU",
      "timezone": "Asia/Krasnoyarsk"
    },
    "lemsid": {
      "name": "Lemsid",
      "lat": 26.54818656,
      "lng": -13.84819219,
      "population": 100,
      "iso2": "MA",
      "timezone": "Africa/El_Aaiun"
    },
    "el agheila": {
      "name": "El Agheila",
      "lat": 30.25702781,
      "lng": 19.20000606,
      "population": 100,
      "iso2": "LY",
      "timezone": "Africa/Tripoli"
    },
    "mucusso": {
      "name": "Mucusso",
      "lat": -18.01953449,
      "lng": 21.42999914,
      "population": 100,
      "iso2": "AO",
      "timezone": "Africa/Luanda"
    },
    "kaktovik": {
      "name": "Kaktovik",
      "lat": 70.08785552,
      "lng": -143.6029132,
      "population": 101,
      "iso2": "US",
      "timezone": "America/Anchorage"
    },
    "koyukuk": {
      "name": "Koyukuk",
      "lat": 64.88028912,
      "lng": -157.7008499,
      "population": 101,
      "iso2": "US",
      "timezone": "America/Anchorage"
    },
    "port heiden": {
      "name": "Port Heiden",
      "lat": 56.94909365,
      "lng": -158.6268915,
      "population": 102,
      "iso2": "US",
      "timezone": "America/Anchorage"
    },
    "lutselke": {
      "name": "Lutselke",
      "lat": 62.40005292,
      "lng": -110.7333291,
      "population": 102,
      "iso2": "CA",
      "timezone": "America/Yellowknife"
    },
    "eagle": {
      "name": "Eagle",
      "lat": 64.78799501,
      "lng": -141.1999966,
      "population": 104,
      "iso2": "US",
      "timezone": "America/Anchorage"
    },
    "salluit": {
      "name": "Salluit",
      "lat": 62.18259849,
      "lng": -75.65950098,
      "population": 106,
      "iso2": "CA",
      "timezone": "America/Montreal"
    },
    "sharbaqty": {
      "name": "Sharbaqty",
      "lat": 52.49990786,
      "lng": 78.14994787,
      "population": 107,
      "iso2": "KZ",
      "timezone": "Asia/Almaty"
    },
    "yakutat": {
      "name": "Yakutat",
      "lat": 59.54730715,
      "lng": -139.7272183,
      "population": 109,
      "iso2": "US",
      "timezone": "America/Yakutat"
    },
    "perryville": {
      "name": "Perryville",
      "lat": 55.91861391,
      "lng": -159.1511489,
      "population": 113,
      "iso2": "US",
      "timezone": "America/Anchorage"
    },
    "chignik": {
      "name": "Chignik",
      "lat": 56.295671,
      "lng": -158.4022282,
      "population": 118,
      "iso2": "US",
      "timezone": "America/Anchorage"
    },
    "gulkana": {
      "name": "Gulkana",
      "lat": 62.27135276,
      "lng": -145.3821961,
      "population": 119,
      "iso2": "US",
      "timezone": "America/Anchorage"
    },
    "lansdowne house": {
      "name": "Lansdowne House",
      "lat": 52.21664349,
      "lng": -87.88332849,
      "population": 120,
      "iso2": "CA",
      "timezone": "America/Toronto"
    },
    "rigolet": {
      "name": "Rigolet",
      "lat": 54.17660138,
      "lng": -58.44732162,
      "population": 124,
      "iso2": "CA",
      "timezone": "America/Goose_Bay"
    },
    "fort severn": {
      "name": "Fort Severn",
      "lat": 55.98333864,
      "lng": -87.64998356,
      "population": 125,
      "iso2": "CA",
      "timezone": "America/Toronto"
    },
    "bifoum": {
      "name": "Bifoum",
      "lat": -0.332913799,
      "lng": 10.38323157,
      "population": 134,
      "iso2": "GA",
      "timezone": "Africa/Libreville"
    },
    "tanacross": {
      "name": "Tanacross",
      "lat": 63.38570335,
      "lng": -143.346403,
      "population": 136,
      "iso2": "US",
      "timezone": "America/Anchorage"
    },
    "mcgrath": {
      "name": "McGrath",
      "lat": 62.9568148,
      "lng": -155.5957845,
      "population": 138,
      "iso2": "US",
      "timezone": "America/Anchorage"
    },
    "telukbutun": {
      "name": "Telukbutun",
      "lat": 4.216989358,
      "lng": 108.2,
      "population": 140,
      "iso2": "ID",
      "timezone": "Asia/Jakarta"
    },
    "bedourie": {
      "name": "Bedourie",
      "lat": -24.34958738,
      "lng": 139.4666186,
      "population": 142,
      "iso2": "AU",
      "timezone": "Australia/Brisbane"
    },
    "narsarsuaq": {
      "name": "Narsarsuaq",
      "lat": 61.16658815,
      "lng": -45.41661829,
      "population": 145,
      "iso2": "GL",
      "timezone": "America/Godthab"
    },
    "progress": {
      "name": "Progress",
      "lat": 49.75038576,
      "lng": 129.6166772,
      "population": 146,
      "iso2": "RU",
      "timezone": "Asia/Yakutsk"
    },
    "bafwasende": {
      "name": "Bafwasende",
      "lat": 1.083847269,
      "lng": 27.26659379,
      "population": 149,
      "iso2": "CD",
      "timezone": "Africa/Lubumbashi"
    },
    "cuito caunavale": {
      "name": "Cuito Caunavale",
      "lat": -15.15960569,
      "lng": 19.16998205,
      "population": 149,
      "iso2": "AO",
      "timezone": "Africa/Luanda"
    },
    "la esmeralda": {
      "name": "La Esmeralda",
      "lat": 3.173823058,
      "lng": -65.54660405,
      "population": 149.5,
      "iso2": "VE",
      "timezone": "America/Caracas"
    },
    "luiana": {
      "name": "Luiana",
      "lat": -17.36954832,
      "lng": 22.99998083,
      "population": 150,
      "iso2": "AO",
      "timezone": "Africa/Luanda"
    },
    "kobuk": {
      "name": "Kobuk",
      "lat": 66.9072455,
      "lng": -156.8809774,
      "population": 151,
      "iso2": "US",
      "timezone": "America/Anchorage"
    },
    "stony rapids": {
      "name": "Stony Rapids",
      "lat": 59.26657493,
      "lng": -105.8332664,
      "population": 152,
      "iso2": "CA",
      "timezone": "America/Regina"
    },
    "cold bay": {
      "name": "Cold Bay",
      "lat": 55.20000144,
      "lng": -162.7150916,
      "population": 154,
      "iso2": "US",
      "timezone": "America/Nome"
    },
    "ivugivik": {
      "name": "Ivugivik",
      "lat": 62.41664105,
      "lng": -77.89998438,
      "population": 156,
      "iso2": "CA",
      "timezone": "America/Montreal"
    },
    "al qunfudhah": {
      "name": "Al Qunfudhah",
      "lat": 19.12636354,
      "lng": 41.07887732,
      "population": 157,
      "iso2": "SA",
      "timezone": "Asia/Riyadh"
    },
    "windorah": {
      "name": "Windorah",
      "lat": -25.43324217,
      "lng": 142.6501969,
      "population": 158,
      "iso2": "AU",
      "timezone": "Australia/Brisbane"
    },
    "newhalen": {
      "name": "Newhalen",
      "lat": 59.72034568,
      "lng": -154.8971967,
      "population": 160,
      "iso2": "US",
      "timezone": "America/Anchorage"
    },
    "vikhorevka": {
      "name": "Vikhorevka",
      "lat": 56.09309938,
      "lng": 101.2426985,
      "population": 166,
      "iso2": "RU",
      "timezone": "Asia/Irkutsk"
    },
    "karumba": {
      "name": "Karumba",
      "lat": -17.48333982,
      "lng": 140.8334086,
      "population": 173,
      "iso2": "AU",
      "timezone": "Australia/Brisbane"
    },
    "wainwright": {
      "name": "Wainwright",
      "lat": 70.63688865,
      "lng": -160.0383041,
      "population": 174,
      "iso2": "US",
      "timezone": "America/Anchorage"
    },
    "androka": {
      "name": "Androka",
      "lat": -25.02194623,
      "lng": 44.07494694,
      "population": 174,
      "iso2": "MG",
      "timezone": "Indian/Antananarivo"
    },
    "villa o'higgins": {
      "name": "Villa O'Higgins",
      "lat": -48.46790851,
      "lng": -72.55997441,
      "population": 175,
      "iso2": "CL",
      "timezone": "America/Santiago"
    },
    "tsiigehtchic": {
      "name": "Tsiigehtchic",
      "lat": 67.43328575,
      "lng": -133.7499862,
      "population": 175,
      "iso2": "CA",
      "timezone": "America/Yellowknife"
    },
    "hurdiyo": {
      "name": "Hurdiyo",
      "lat": 10.5820272,
      "lng": 51.12332882,
      "population": 176,
      "iso2": "SO",
      "timezone": "Africa/Mogadishu"
    },
    "whittier": {
      "name": "Whittier",
      "lat": 60.78415672,
      "lng": -148.6776797,
      "population": 177,
      "iso2": "US",
      "timezone": "America/Anchorage"
    },
    "vilanculos": {
      "name": "Vilanculos",
      "lat": -21.99954995,
      "lng": 35.31659338,
      "population": 177,
      "iso2": "MZ",
      "timezone": "Africa/Maputo"
    },
    "lusanga": {
      "name": "Lusanga",
      "lat": -5.582929261,
      "lng": 16.51665564,
      "population": 177,
      "iso2": "CD",
      "timezone": "Africa/Kinshasa"
    },
    "bicheno": {
      "name": "Bicheno",
      "lat": -41.87838825,
      "lng": 148.2886124,
      "population": 177,
      "iso2": "AU",
      "timezone": "Australia/Hobart"
    },
    "oxford house": {
      "name": "Oxford House",
      "lat": 54.95040428,
      "lng": -95.26659876,
      "population": 184,
      "iso2": "CA",
      "timezone": "America/Winnipeg"
    },
    "quipungo": {
      "name": "Quipungo",
      "lat": -14.82954832,
      "lng": 14.55000565,
      "population": 186,
      "iso2": "AO",
      "timezone": "Africa/Luanda"
    },
    "burketown": {
      "name": "Burketown",
      "lat": -17.71609048,
      "lng": 139.5666125,
      "population": 186.5,
      "iso2": "AU",
      "timezone": "Australia/Brisbane"
    },
    "camooweal": {
      "name": "Camooweal",
      "lat": -19.91673134,
      "lng": 138.1166752,
      "population": 187,
      "iso2": "AU",
      "timezone": "Australia/Brisbane"
    },
    "southern cross": {
      "name": "Southern Cross",
      "lat": -31.216145,
      "lng": 119.3166857,
      "population": 187,
      "iso2": "AU",
      "timezone": "Australia/Perth"
    },
    "sayhut": {
      "name": "Sayhut",
      "lat": 15.21050437,
      "lng": 51.24544023,
      "population": 189,
      "iso2": "YE",
      "timezone": "Asia/Aden"
    },
    "kaltag": {
      "name": "Kaltag",
      "lat": 64.32719627,
      "lng": -158.7218986,
      "population": 190,
      "iso2": "US",
      "timezone": "America/Anchorage"
    },
    "three springs": {
      "name": "Three Springs",
      "lat": -29.53330198,
      "lng": 115.7499784,
      "population": 190,
      "iso2": "AU",
      "timezone": "Australia/Perth"
    },
    "kangersuatsiaq": {
      "name": "Kangersuatsiaq",
      "lat": 72.37963955,
      "lng": -55.54911893,
      "population": 193,
      "iso2": "GL",
      "timezone": "America/Godthab"
    },
    "kalima": {
      "name": "Kalima",
      "lat": -2.509576804,
      "lng": 26.43000403,
      "population": 194,
      "iso2": "CD",
      "timezone": "Africa/Lubumbashi"
    },
    "port hope simpson": {
      "name": "Port Hope Simpson",
      "lat": 52.53329083,
      "lng": -56.30001083,
      "population": 197,
      "iso2": "CA",
      "timezone": "America/St_Johns"
    },
    "charana": {
      "name": "Charana",
      "lat": -17.5996118,
      "lng": -69.46659733,
      "population": 197,
      "iso2": "BO",
      "timezone": "America/La_Paz"
    },
    "meander river": {
      "name": "Meander River",
      "lat": 59.03328168,
      "lng": -117.6829824,
      "population": 200,
      "iso2": "CA",
      "timezone": "America/Edmonton"
    },
    "atqasuk": {
      "name": "Atqasuk",
      "lat": 70.4693795,
      "lng": -157.395778,
      "population": 201,
      "iso2": "US",
      "timezone": "America/Anchorage"
    },
    "mapai": {
      "name": "Mapai",
      "lat": -22.84265094,
      "lng": 31.96305131,
      "population": 201,
      "iso2": "MZ",
      "timezone": "Africa/Maputo"
    },
    "thargomindah": {
      "name": "Thargomindah",
      "lat": -27.99995888,
      "lng": 143.816689,
      "population": 203,
      "iso2": "AU",
      "timezone": "Australia/Brisbane"
    },
    "nuussuaq": {
      "name": "Nuussuaq",
      "lat": 74.12096872,
      "lng": -57.06736051,
      "population": 204,
      "iso2": "GL",
      "timezone": "America/Godthab"
    },
    "zouar": {
      "name": "Zouar",
      "lat": 20.458737,
      "lng": 16.52776607,
      "population": 204,
      "iso2": "TD",
      "timezone": "Africa/Ndjamena"
    },
    "kingston south east": {
      "name": "Kingston South East",
      "lat": -36.83280475,
      "lng": 139.8500577,
      "population": 206,
      "iso2": "AU",
      "timezone": "Australia/Adelaide"
    },
    "i-n-amenas": {
      "name": "I-n-Amenas",
      "lat": 28.0503408,
      "lng": 9.550000772,
      "population": 216,
      "iso2": "DZ",
      "timezone": "Africa/Algiers"
    },
    "gingoog": {
      "name": "Gingoog",
      "lat": 8.830377013,
      "lng": 125.1299743,
      "population": 218,
      "iso2": "PH",
      "timezone": "Asia/Manila"
    },
    "cantwell": {
      "name": "Cantwell",
      "lat": 63.39159446,
      "lng": -148.9507896,
      "population": 222,
      "iso2": "US",
      "timezone": "America/Anchorage"
    },
    "st. anthony": {
      "name": "St. Anthony",
      "lat": 51.3837486,
      "lng": -55.5999502,
      "population": 224,
      "iso2": "CA",
      "timezone": "America/St_Johns"
    },
    "leonara": {
      "name": "Leonara",
      "lat": -28.88150714,
      "lng": 121.3280358,
      "population": 227,
      "iso2": "AU",
      "timezone": "Australia/Perth"
    },
    "goodnews bay": {
      "name": "Goodnews Bay",
      "lat": 59.12099265,
      "lng": -161.5871302,
      "population": 230,
      "iso2": "US",
      "timezone": "America/Anchorage"
    },
    "abau": {
      "name": "Abau",
      "lat": -10.04260537,
      "lng": 148.5650297,
      "population": 230,
      "iso2": "PG",
      "timezone": "Pacific/Port_Moresby"
    },
    "kanyato": {
      "name": "Kanyato",
      "lat": -4.456538067,
      "lng": 30.26139807,
      "population": 232,
      "iso2": "TZ",
      "timezone": "Africa/Dar_es_Salaam"
    },
    "togiak": {
      "name": "Togiak",
      "lat": 59.07036101,
      "lng": -160.3783234,
      "population": 236,
      "iso2": "US",
      "timezone": "America/Anchorage"
    },
    "adelaide river": {
      "name": "Adelaide River",
      "lat": -13.2495414,
      "lng": 131.0999975,
      "population": 237,
      "iso2": "AU",
      "timezone": "Australia/Darwin"
    },
    "resolute": {
      "name": "Resolute",
      "lat": 74.68333417,
      "lng": -94.90000615,
      "population": 239.5,
      "iso2": "CA",
      "timezone": "America/Resolute"
    },
    "kenge": {
      "name": "Kenge",
      "lat": -4.829590231,
      "lng": 16.89993974,
      "population": 241,
      "iso2": "CD",
      "timezone": "Africa/Kinshasa"
    },
    "nimule": {
      "name": "Nimule",
      "lat": 3.599998595,
      "lng": 32.05002274,
      "population": 242,
      "iso2": "SS",
      "timezone": "Africa/Juba"
    },
    "timbedra": {
      "name": "Timbedra",
      "lat": 16.25041506,
      "lng": -8.166618084,
      "population": 245,
      "iso2": "MR",
      "timezone": "Africa/Nouakchott"
    },
    "theodore": {
      "name": "Theodore",
      "lat": -24.94949909,
      "lng": 150.0833349,
      "population": 246,
      "iso2": "AU",
      "timezone": "Australia/Brisbane"
    },
    "tasiusaq": {
      "name": "Tasiusaq",
      "lat": 73.36900226,
      "lng": -56.05981366,
      "population": 249,
      "iso2": "GL",
      "timezone": "America/Godthab"
    },
    "quinhagak": {
      "name": "Quinhagak",
      "lat": 59.74923281,
      "lng": -161.9157864,
      "population": 250,
      "iso2": "US",
      "timezone": "America/Anchorage"
    },
    "koyuk": {
      "name": "Koyuk",
      "lat": 64.94026874,
      "lng": -161.1574717,
      "population": 254,
      "iso2": "US",
      "timezone": "America/Anchorage"
    },
    "shishmaref": {
      "name": "Shishmaref",
      "lat": 66.25697512,
      "lng": -166.0718893,
      "population": 254,
      "iso2": "US",
      "timezone": "America/Nome"
    },
    "ambler": {
      "name": "Ambler",
      "lat": 67.08648521,
      "lng": -157.8514091,
      "population": 258,
      "iso2": "US",
      "timezone": "America/Anchorage"
    },
    "morawa": {
      "name": "Morawa",
      "lat": -29.21626707,
      "lng": 116.0000406,
      "population": 259,
      "iso2": "AU",
      "timezone": "Australia/Perth"
    },
    "port-menier": {
      "name": "Port-Menier",
      "lat": 49.82257774,
      "lng": -64.34799504,
      "population": 263,
      "iso2": "CA",
      "timezone": "America/Montreal"
    },
    "ivanhoe": {
      "name": "Ivanhoe",
      "lat": -32.89960814,
      "lng": 144.3000187,
      "population": 265,
      "iso2": "AU",
      "timezone": "Australia/Sydney"
    },
    "radisson": {
      "name": "Radisson",
      "lat": 53.78362795,
      "lng": -77.61656498,
      "population": 270,
      "iso2": "CA",
      "timezone": "America/Montreal"
    },
    "gubkin": {
      "name": "Gubkin",
      "lat": 51.27434959,
      "lng": 37.38432247,
      "population": 272,
      "iso2": "RU",
      "timezone": "Europe/Moscow"
    },
    "cat lake": {
      "name": "Cat Lake",
      "lat": 51.71703575,
      "lng": -91.79998865,
      "population": 277,
      "iso2": "CA",
      "timezone": "America/Winnipeg"
    },
    "brochet": {
      "name": "Brochet",
      "lat": 57.88322268,
      "lng": -101.6665957,
      "population": 278,
      "iso2": "CA",
      "timezone": "America/Winnipeg"
    },
    "amderma": {
      "name": "Amderma",
      "lat": 69.76301434,
      "lng": 61.66769812,
      "population": 282,
      "iso2": "RU",
      "timezone": "Europe/Moscow"
    },
    "fort simpson": {
      "name": "Fort Simpson",
      "lat": 61.84998313,
      "lng": -121.3332764,
      "population": 283,
      "iso2": "CA",
      "timezone": "America/Yellowknife"
    },
    "birdsville": {
      "name": "Birdsville",
      "lat": -25.89962197,
      "lng": 139.3666247,
      "population": 283,
      "iso2": "AU",
      "timezone": "Australia/Brisbane"
    },
    "chevery": {
      "name": "Chevery",
      "lat": 50.48132306,
      "lng": -59.60978296,
      "population": 284,
      "iso2": "CA",
      "timezone": "America/Blanc-Sablon"
    },
    "kulusuk": {
      "name": "Kulusuk",
      "lat": 65.56657798,
      "lng": -37.18332239,
      "population": 286,
      "iso2": "GL",
      "timezone": "America/Godthab"
    },
    "ikela": {
      "name": "Ikela",
      "lat": -1.182939434,
      "lng": 23.26657955,
      "population": 291,
      "iso2": "CD",
      "timezone": "Africa/Kinshasa"
    },
    "tanana": {
      "name": "Tanana",
      "lat": 65.17187339,
      "lng": -152.0787899,
      "population": 291.5,
      "iso2": "US",
      "timezone": "America/Anchorage"
    },
    "king salmon": {
      "name": "King Salmon",
      "lat": 58.68870323,
      "lng": -156.6613784,
      "population": 292,
      "iso2": "US",
      "timezone": "America/Anchorage"
    },
    "yaupi": {
      "name": "Yaupi",
      "lat": -2.854310284,
      "lng": -77.93633875,
      "population": 293,
      "iso2": "EC",
      "timezone": "America/Guayaquil"
    },
    "paulatuk": {
      "name": "Paulatuk",
      "lat": 69.38332176,
      "lng": -123.9833214,
      "population": 294,
      "iso2": "CA",
      "timezone": "America/Yellowknife"
    },
    "richmond": {
      "name": "Richmond",
      "lat": 37.55001935,
      "lng": -77.449986,
      "population": 551443,
      "iso2": "US",
      "timezone": "America/New_York"
    },
    "enurmino": {
      "name": "Enurmino",
      "lat": 66.95000775,
      "lng": -171.8166032,
      "population": 297,
      "iso2": "RU",
      "timezone": "Asia/Anadyr"
    },
    "put lenina": {
      "name": "Put Lenina",
      "lat": 68.51663047,
      "lng": 107.7999727,
      "population": 298,
      "iso2": "RU",
      "timezone": "Asia/Yakutsk"
    },
    "cazombo": {
      "name": "Cazombo",
      "lat": -11.88957273,
      "lng": 22.90003861,
      "population": 298,
      "iso2": "AO",
      "timezone": "Africa/Luanda"
    },
    "umm al abid": {
      "name": "Umm al Abid",
      "lat": 27.51701418,
      "lng": 15.03333533,
      "population": 299,
      "iso2": "LY",
      "timezone": "Africa/Tripoli"
    },
    "shoyna": {
      "name": "Shoyna",
      "lat": 67.86664431,
      "lng": 44.13336788,
      "population": 300,
      "iso2": "RU",
      "timezone": "Europe/Moscow"
    },
    "bugrino": {
      "name": "Bugrino",
      "lat": 68.80787884,
      "lng": 49.30416337,
      "population": 300,
      "iso2": "RU",
      "timezone": "Europe/Moscow"
    },
    "dease lake": {
      "name": "Dease Lake",
      "lat": 58.45034568,
      "lng": -130.033288,
      "population": 303,
      "iso2": "CA",
      "timezone": "America/Vancouver"
    },
    "basse-terre": {
      "name": "Basse-terre",
      "lat": 16.23039044,
      "lng": -61.43998132,
      "population": 307,
      "iso2": "GP",
      "timezone": "America/Guadeloupe"
    },
    "manyoni": {
      "name": "Manyoni",
      "lat": -5.779609763,
      "lng": 34.90002966,
      "population": 310,
      "iso2": "TZ",
      "timezone": "Africa/Dar_es_Salaam"
    },
    "laverton": {
      "name": "Laverton",
      "lat": -28.62700071,
      "lng": 122.4040425,
      "population": 316,
      "iso2": "AU",
      "timezone": "Australia/Perth"
    },
    "eastmain": {
      "name": "Eastmain",
      "lat": 52.23333498,
      "lng": -78.51669092,
      "population": 335,
      "iso2": "CA",
      "timezone": "America/Montreal"
    },
    "bir lehlou": {
      "name": "Bir Lehlou",
      "lat": 26.11916669,
      "lng": -9.652522218,
      "population": 350,
      "iso2": "EH",
      "timezone": "Africa/El_Aaiun"
    },
    "tmassah": {
      "name": "Tmassah",
      "lat": 26.36664512,
      "lng": 15.80000688,
      "population": 350,
      "iso2": "LY",
      "timezone": "Africa/Tripoli"
    },
    "tununak": {
      "name": "Tununak",
      "lat": 60.58548667,
      "lng": -165.2557892,
      "population": 352,
      "iso2": "US",
      "timezone": "America/Nome"
    },
    "lethem": {
      "name": "Lethem",
      "lat": 3.389959736,
      "lng": -59.80002975,
      "population": 352,
      "iso2": "GY",
      "timezone": "America/Guyana"
    },
    "kaltukatjara": {
      "name": "Kaltukatjara",
      "lat": -25.78841429,
      "lng": 128.9973352,
      "population": 355,
      "iso2": "AU",
      "timezone": "Australia/Perth"
    },
    "rio verde": {
      "name": "Rio Verde",
      "lat": 21.92999086,
      "lng": -99.98000615,
      "population": 59233.5,
      "iso2": "MX",
      "timezone": "America/Mexico_City"
    },
    "hoonah": {
      "name": "Hoonah",
      "lat": 58.11540489,
      "lng": -135.438617,
      "population": 361,
      "iso2": "US",
      "timezone": "America/Juneau"
    },
    "akjoujt": {
      "name": "Akjoujt",
      "lat": 19.74699906,
      "lng": -14.39099948,
      "population": 370,
      "iso2": "MR",
      "timezone": "Africa/Nouakchott"
    },
    "moroto": {
      "name": "Moroto",
      "lat": 2.540347513,
      "lng": 34.63999385,
      "population": 371,
      "iso2": "UG",
      "timezone": "Africa/Kampala"
    },
    "kivalina": {
      "name": "Kivalina",
      "lat": 67.73149224,
      "lng": -164.4859034,
      "population": 374,
      "iso2": "US",
      "timezone": "America/Nome"
    },
    "chesterfield inlet": {
      "name": "Chesterfield Inlet",
      "lat": 63.33829022,
      "lng": -90.70008163,
      "population": 374,
      "iso2": "CA",
      "timezone": "America/Rankin_Inlet"
    },
    "toconao": {
      "name": "Toconao",
      "lat": -23.18288857,
      "lng": -68.01663416,
      "population": 378,
      "iso2": "CL",
      "timezone": "America/Santiago"
    },
    "chonchi": {
      "name": "Chonchi",
      "lat": -42.61002317,
      "lng": -73.80994979,
      "population": 381,
      "iso2": "CL",
      "timezone": "America/Santiago"
    },
    "hydaburg": {
      "name": "Hydaburg",
      "lat": 55.21397992,
      "lng": -132.8006385,
      "population": 382,
      "iso2": "US",
      "timezone": "America/Sitka"
    },
    "kimmirut": {
      "name": "Kimmirut",
      "lat": 62.85002545,
      "lng": -69.88331608,
      "population": 385,
      "iso2": "CA",
      "timezone": "America/Iqaluit"
    },
    "espungabera": {
      "name": "Espungabera",
      "lat": -20.45013548,
      "lng": 32.77003048,
      "population": 393,
      "iso2": "MZ",
      "timezone": "Africa/Maputo"
    },
    "déline": {
      "name": "Déline",
      "lat": 65.18334556,
      "lng": -123.4166635,
      "population": 393.5,
      "iso2": "CA",
      "timezone": "America/Yellowknife"
    },
    "nizhneyansk": {
      "name": "Nizhneyansk",
      "lat": 71.43332583,
      "lng": 136.0666194,
      "population": 395.5,
      "iso2": "RU",
      "timezone": "Asia/Vladivostok"
    },
    "trepassey": {
      "name": "Trepassey",
      "lat": 46.73697797,
      "lng": -53.36329085,
      "population": 398,
      "iso2": "CA",
      "timezone": "America/St_Johns"
    },
    "korf": {
      "name": "Korf",
      "lat": 60.33206545,
      "lng": 165.8183435,
      "population": 400,
      "iso2": "RU",
      "timezone": "Asia/Kamchatka"
    },
    "boulia": {
      "name": "Boulia",
      "lat": -22.89959837,
      "lng": 139.9000288,
      "population": 402.5,
      "iso2": "AU",
      "timezone": "Australia/Brisbane"
    },
    "yakossi": {
      "name": "Yakossi",
      "lat": 5.617007262,
      "lng": 23.31665401,
      "population": 409.5,
      "iso2": "CF",
      "timezone": "Africa/Bangui"
    },
    "comondante luis piedrabuena": {
      "name": "Comondante Luis Piedrabuena",
      "lat": -49.97454865,
      "lng": -68.90347273,
      "population": 410,
      "iso2": "AR",
      "timezone": "America/Argentina/Rio_Gallegos"
    },
    "sherlovaya gora": {
      "name": "Sherlovaya Gora",
      "lat": 50.53059654,
      "lng": 116.3006425,
      "population": 411,
      "iso2": "RU",
      "timezone": "Asia/Chita"
    },
    "tsavo": {
      "name": "Tsavo",
      "lat": -2.982777894,
      "lng": 38.46663367,
      "population": 414,
      "iso2": "KE",
      "timezone": "Africa/Nairobi"
    },
    "hughenden": {
      "name": "Hughenden",
      "lat": -20.85000771,
      "lng": 144.2000248,
      "population": 421,
      "iso2": "AU",
      "timezone": "Australia/Brisbane"
    },
    "mount magnet": {
      "name": "Mount Magnet",
      "lat": -28.06620807,
      "lng": 117.8166739,
      "population": 424,
      "iso2": "AU",
      "timezone": "Australia/Perth"
    },
    "cuangar": {
      "name": "Cuangar",
      "lat": -17.60953367,
      "lng": 18.61998979,
      "population": 425,
      "iso2": "NA",
      "timezone": "Africa/Luanda"
    },
    "pukatawagan": {
      "name": "Pukatawagan",
      "lat": 55.73327639,
      "lng": -101.3166171,
      "population": 431,
      "iso2": "CA",
      "timezone": "America/Winnipeg"
    },
    "qaanaaq": {
      "name": "Qaanaaq",
      "lat": 77.48347333,
      "lng": -69.33223861,
      "population": 437,
      "iso2": "GL",
      "timezone": "America/Thule"
    },
    "hopedale": {
      "name": "Hopedale",
      "lat": 55.44996035,
      "lng": -60.21667098,
      "population": 442,
      "iso2": "CA",
      "timezone": "America/Goose_Bay"
    },
    "wilcannia": {
      "name": "Wilcannia",
      "lat": -31.56620115,
      "lng": 143.3833304,
      "population": 442,
      "iso2": "AU",
      "timezone": "Australia/Sydney"
    },
    "kullorsuaq": {
      "name": "Kullorsuaq",
      "lat": 74.57806289,
      "lng": -57.22498603,
      "population": 443,
      "iso2": "GL",
      "timezone": "America/Godthab"
    },
    "dhuusa mareeb": {
      "name": "Dhuusa Mareeb",
      "lat": 5.741999984,
      "lng": 46.5080045,
      "population": 447,
      "iso2": "SO",
      "timezone": "Africa/Mogadishu"
    },
    "xangongo": {
      "name": "Xangongo",
      "lat": -16.74002602,
      "lng": 14.96998002,
      "population": 447,
      "iso2": "AO",
      "timezone": "Africa/Luanda"
    },
    "fada": {
      "name": "Fada",
      "lat": 17.18472495,
      "lng": 21.59024776,
      "population": 448,
      "iso2": "TD",
      "timezone": "Africa/Ndjamena"
    },
    "fort resolution": {
      "name": "Fort Resolution",
      "lat": 61.16658815,
      "lng": -113.682994,
      "population": 448,
      "iso2": "CA",
      "timezone": "America/Yellowknife"
    },
    "forteau": {
      "name": "Forteau",
      "lat": 51.45038535,
      "lng": -56.94999699,
      "population": 448,
      "iso2": "CA",
      "timezone": "America/St_Johns"
    },
    "holman": {
      "name": "Holman",
      "lat": 70.73336855,
      "lng": -117.7499809,
      "population": 449,
      "iso2": "CA",
      "timezone": "America/Yellowknife"
    },
    "woomera": {
      "name": "Woomera",
      "lat": -31.14958576,
      "lng": 136.8000114,
      "population": 450,
      "iso2": "AU",
      "timezone": "Australia/Adelaide"
    },
    "trout river": {
      "name": "Trout River",
      "lat": 49.48365786,
      "lng": -58.11664413,
      "population": 452,
      "iso2": "CA",
      "timezone": "America/St_Johns"
    },
    "eidsvold": {
      "name": "Eidsvold",
      "lat": -25.36621784,
      "lng": 151.1333483,
      "population": 459,
      "iso2": "AU",
      "timezone": "Australia/Brisbane"
    },
    "selibaby": {
      "name": "Selibaby",
      "lat": 15.16701866,
      "lng": -12.18332381,
      "population": 460,
      "iso2": "MR",
      "timezone": "Africa/Nouakchott"
    },
    "point hope": {
      "name": "Point Hope",
      "lat": 68.34772605,
      "lng": -166.8080201,
      "population": 461,
      "iso2": "US",
      "timezone": "America/Nome"
    },
    "chitado": {
      "name": "Chitado",
      "lat": -17.31962889,
      "lng": 13.92001827,
      "population": 468.5,
      "iso2": "AO",
      "timezone": "Africa/Luanda"
    },
    "ittoqqortoormiit": {
      "name": "Ittoqqortoormiit",
      "lat": 70.48335797,
      "lng": -21.9666543,
      "population": 469,
      "iso2": "GL",
      "timezone": "America/Danmarkshavn"
    },
    "schefferville": {
      "name": "Schefferville",
      "lat": 54.80000002,
      "lng": -66.81665572,
      "population": 471,
      "iso2": "CA",
      "timezone": "America/Montreal"
    },
    "puerto pinasco": {
      "name": "Puerto Pinasco",
      "lat": -22.64002765,
      "lng": -57.7899974,
      "population": 473.5,
      "iso2": "PY",
      "timezone": "America/Asuncion"
    },
    "lynn lake": {
      "name": "Lynn Lake",
      "lat": 56.85002993,
      "lng": -101.0499667,
      "population": 482,
      "iso2": "CA",
      "timezone": "America/Winnipeg"
    },
    "galena": {
      "name": "Galena",
      "lat": 64.73329551,
      "lng": -156.9269953,
      "population": 485,
      "iso2": "US",
      "timezone": "America/Anchorage"
    },
    "mys shmidta": {
      "name": "Mys Shmidta",
      "lat": 68.93371096,
      "lng": -179.4999844,
      "population": 492,
      "iso2": "RU",
      "timezone": "Asia/Anadyr"
    },
    "telsen": {
      "name": "Telsen",
      "lat": -42.39959674,
      "lng": -66.95000676,
      "population": 493,
      "iso2": "AR",
      "timezone": "America/Argentina/Catamarca"
    },
    "aniak": {
      "name": "Aniak",
      "lat": 61.5787077,
      "lng": -159.5221857,
      "population": 501,
      "iso2": "US",
      "timezone": "America/Anchorage"
    },
    "cartwright": {
      "name": "Cartwright",
      "lat": 53.70140663,
      "lng": -57.01214114,
      "population": 505,
      "iso2": "CA",
      "timezone": "America/Goose_Bay"
    },
    "pine creek": {
      "name": "Pine Creek",
      "lat": -13.81617348,
      "lng": 131.816698,
      "population": 505,
      "iso2": "AU",
      "timezone": "Australia/Darwin"
    },
    "tournavista": {
      "name": "Tournavista",
      "lat": -8.932182191,
      "lng": -74.70521814,
      "population": 511,
      "iso2": "PE",
      "timezone": "America/Lima"
    },
    "caluula": {
      "name": "Caluula",
      "lat": 11.96695559,
      "lng": 50.75001827,
      "population": 513,
      "iso2": "SO",
      "timezone": "Africa/Mogadishu"
    },
    "fort smith": {
      "name": "Fort Smith",
      "lat": 35.38622377,
      "lng": -94.39835718,
      "population": 87986.5,
      "iso2": "US",
      "timezone": "America/Chicago"
    },
    "berens river": {
      "name": "Berens River",
      "lat": 52.36655682,
      "lng": -97.03331262,
      "population": 522.5,
      "iso2": "CA",
      "timezone": "America/Winnipeg"
    },
    "punta prieta": {
      "name": "Punta Prieta",
      "lat": 28.93369773,
      "lng": -114.1665821,
      "population": 527,
      "iso2": "MX",
      "timezone": "America/Tijuana"
    },
    "andamooka": {
      "name": "Andamooka",
      "lat": -30.43097329,
      "lng": 137.1655704,
      "population": 528,
      "iso2": "AU",
      "timezone": "Australia/Adelaide"
    },
    "calucinga": {
      "name": "Calucinga",
      "lat": -11.31958169,
      "lng": 16.19998246,
      "population": 531,
      "iso2": "AO",
      "timezone": "Africa/Luanda"
    },
    "cowell": {
      "name": "Cowell",
      "lat": -33.68286782,
      "lng": 136.9166451,
      "population": 537,
      "iso2": "AU",
      "timezone": "Australia/Adelaide"
    },
    "sandspit": {
      "name": "Sandspit",
      "lat": 53.24040529,
      "lng": -131.8332815,
      "population": 538,
      "iso2": "CA",
      "timezone": "America/Vancouver"
    },
    "mendocino": {
      "name": "Mendocino",
      "lat": 39.30776735,
      "lng": -123.7994308,
      "population": 548,
      "iso2": "US",
      "timezone": "America/Los_Angeles"
    },
    "mereeg": {
      "name": "Mereeg",
      "lat": 3.766577575,
      "lng": 47.2999963,
      "population": 548,
      "iso2": "SO",
      "timezone": "Africa/Mogadishu"
    },
    "kangirsuk": {
      "name": "Kangirsuk",
      "lat": 60.02482322,
      "lng": -69.99909713,
      "population": 549,
      "iso2": "CA",
      "timezone": "America/Montreal"
    },
    "lata": {
      "name": "Lata",
      "lat": -10.73801832,
      "lng": 165.8567353,
      "population": 553,
      "iso2": "SB",
      "timezone": "Pacific/Guadalcanal"
    },
    "llica": {
      "name": "Llica",
      "lat": -19.84960366,
      "lng": -68.25003076,
      "population": 553,
      "iso2": "BO",
      "timezone": "America/La_Paz"
    },
    "chiramba": {
      "name": "Chiramba",
      "lat": -16.89210976,
      "lng": 34.65585852,
      "population": 556,
      "iso2": "MZ",
      "timezone": "Africa/Maputo"
    },
    "kangerlussuaq": {
      "name": "Kangerlussuaq",
      "lat": 67.01412249,
      "lng": -50.70990925,
      "population": 556,
      "iso2": "GL",
      "timezone": "America/Godthab"
    },
    "gastre": {
      "name": "Gastre",
      "lat": -42.28296303,
      "lng": -69.23330408,
      "population": 557,
      "iso2": "AR",
      "timezone": "America/Argentina/Catamarca"
    },
    "quilpie": {
      "name": "Quilpie",
      "lat": -26.61663247,
      "lng": 144.2500476,
      "population": 560,
      "iso2": "AU",
      "timezone": "Australia/Brisbane"
    },
    "ubomba": {
      "name": "Ubomba",
      "lat": -27.56608356,
      "lng": 32.08330237,
      "population": 564,
      "iso2": "ZA",
      "timezone": "Africa/Johannesburg"
    },
    "mikhalkino": {
      "name": "Mikhalkino",
      "lat": 69.42444039,
      "lng": 161.4811431,
      "population": 570,
      "iso2": "RU",
      "timezone": "Asia/Srednekolymsk"
    },
    "sabaya": {
      "name": "Sabaya",
      "lat": -19.01626951,
      "lng": -68.38327844,
      "population": 573,
      "iso2": "BO",
      "timezone": "America/La_Paz"
    },
    "onslow": {
      "name": "Onslow",
      "lat": -21.65759354,
      "lng": 115.0962959,
      "population": 573,
      "iso2": "AU",
      "timezone": "Australia/Perth"
    },
    "tinogasta": {
      "name": "Tinogasta",
      "lat": -28.06662148,
      "lng": -67.56658411,
      "population": 587,
      "iso2": "AR",
      "timezone": "America/Argentina/Catamarca"
    },
    "mingan": {
      "name": "Mingan",
      "lat": 50.3017589,
      "lng": -64.01726532,
      "population": 588,
      "iso2": "CA",
      "timezone": "America/Montreal"
    },
    "big delta": {
      "name": "Big Delta",
      "lat": 64.15252993,
      "lng": -145.8421939,
      "population": 591,
      "iso2": "US",
      "timezone": "America/Anchorage"
    },
    "fort good hope": {
      "name": "Fort Good Hope",
      "lat": 66.26661277,
      "lng": -128.6333218,
      "population": 597,
      "iso2": "CA",
      "timezone": "America/Yellowknife"
    },
    "ype jhu": {
      "name": "Ype Jhu",
      "lat": -23.91002765,
      "lng": -55.45998458,
      "population": 598,
      "iso2": "PY",
      "timezone": "America/Asuncion"
    },
    "tunduru": {
      "name": "Tunduru",
      "lat": -11.08956989,
      "lng": 37.3700081,
      "population": 600,
      "iso2": "TZ",
      "timezone": "Africa/Dar_es_Salaam"
    },
    "panda": {
      "name": "Panda",
      "lat": -24.06288654,
      "lng": 34.73027258,
      "population": 602,
      "iso2": "MZ",
      "timezone": "Africa/Maputo"
    },
    "dibaya": {
      "name": "Dibaya",
      "lat": -6.509539369,
      "lng": 22.87001461,
      "population": 603,
      "iso2": "CD",
      "timezone": "Africa/Lubumbashi"
    },
    "arctic bay": {
      "name": "Arctic Bay",
      "lat": 73.03330568,
      "lng": -85.16662093,
      "population": 604,
      "iso2": "CA",
      "timezone": "America/Rankin_Inlet"
    },
    "las plumas": {
      "name": "Las Plumas",
      "lat": -43.41627887,
      "lng": -67.24998845,
      "population": 605,
      "iso2": "AR",
      "timezone": "America/Argentina/Catamarca"
    },
    "streaky bay": {
      "name": "Streaky Bay",
      "lat": -32.81187176,
      "lng": 134.2149296,
      "population": 614.5,
      "iso2": "AU",
      "timezone": "Australia/Adelaide"
    },
    "hooper bay": {
      "name": "Hooper Bay",
      "lat": 61.53108787,
      "lng": -166.0965648,
      "population": 623,
      "iso2": "US",
      "timezone": "America/Nome"
    },
    "calatrava": {
      "name": "Calatrava",
      "lat": 1.116403421,
      "lng": 9.418587604,
      "population": 628,
      "iso2": "GQ",
      "timezone": "Africa/Malabo"
    },
    "massangena": {
      "name": "Massangena",
      "lat": -21.53730426,
      "lng": 32.95637569,
      "population": 634.5,
      "iso2": "MZ",
      "timezone": "Africa/Maputo"
    },
    "kimba": {
      "name": "Kimba",
      "lat": -33.14961871,
      "lng": 136.4333671,
      "population": 636,
      "iso2": "AU",
      "timezone": "Australia/Adelaide"
    },
    "ravensthorpe": {
      "name": "Ravensthorpe",
      "lat": -33.58287392,
      "lng": 120.0333345,
      "population": 639,
      "iso2": "AU",
      "timezone": "Australia/Perth"
    },
    "norman wells": {
      "name": "Norman Wells",
      "lat": 65.28372703,
      "lng": -126.8499681,
      "population": 650,
      "iso2": "CA",
      "timezone": "America/Yellowknife"
    },
    "hall beach": {
      "name": "Hall Beach",
      "lat": 68.76746684,
      "lng": -81.23608303,
      "population": 654,
      "iso2": "CA",
      "timezone": "America/Iqaluit"
    },
    "meekatharra": {
      "name": "Meekatharra",
      "lat": -26.59999266,
      "lng": 118.4832999,
      "population": 654,
      "iso2": "AU",
      "timezone": "Australia/Perth"
    },
    "lavrentiya": {
      "name": "Lavrentiya",
      "lat": 65.58326947,
      "lng": -171.0249978,
      "population": 660,
      "iso2": "RU",
      "timezone": "Asia/Anadyr"
    },
    "djanet": {
      "name": "Djanet",
      "lat": 24.5529057,
      "lng": 9.482252969,
      "population": 666,
      "iso2": "DZ",
      "timezone": "Africa/Algiers"
    },
    "sand point": {
      "name": "Sand Point",
      "lat": 55.33970868,
      "lng": -160.4971908,
      "population": 667,
      "iso2": "US",
      "timezone": "America/Anchorage"
    },
    "linxi": {
      "name": "Linxi",
      "lat": 43.51707115,
      "lng": 118.0333016,
      "population": 679,
      "iso2": "CN",
      "timezone": "Asia/Shanghai"
    },
    "gambell": {
      "name": "Gambell",
      "lat": 63.77971031,
      "lng": -171.7310787,
      "population": 681,
      "iso2": "US",
      "timezone": "America/Nome"
    },
    "buchans": {
      "name": "Buchans",
      "lat": 48.81703188,
      "lng": -56.86659123,
      "population": 685,
      "iso2": "CA",
      "timezone": "America/St_Johns"
    },
    "pannawonica": {
      "name": "Pannawonica",
      "lat": -21.63657469,
      "lng": 116.3250337,
      "population": 686,
      "iso2": "AU",
      "timezone": "Australia/Perth"
    },
    "zhaltyr": {
      "name": "Zhaltyr",
      "lat": 51.63241559,
      "lng": 69.83278113,
      "population": 694,
      "iso2": "KZ",
      "timezone": "Asia/Almaty"
    },
    "serebryansk": {
      "name": "Serebryansk",
      "lat": 49.69989789,
      "lng": 83.42487138,
      "population": 701,
      "iso2": "KZ",
      "timezone": "Asia/Almaty"
    },
    "rodeo": {
      "name": "Rodeo",
      "lat": -30.21558592,
      "lng": -69.1399506,
      "population": 701,
      "iso2": "AR",
      "timezone": "America/Argentina/San_Juan"
    },
    "satadougou": {
      "name": "Satadougou",
      "lat": 12.61699343,
      "lng": -11.4066012,
      "population": 706,
      "iso2": "ML",
      "timezone": "Africa/Bamako"
    },
    "natashquan": {
      "name": "Natashquan",
      "lat": 50.19134076,
      "lng": -61.81065637,
      "population": 722,
      "iso2": "CA",
      "timezone": "America/Montreal"
    },
    "wyndham": {
      "name": "Wyndham",
      "lat": -15.37395953,
      "lng": 128.3600614,
      "population": 734.5,
      "iso2": "AU",
      "timezone": "Australia/Perth"
    },
    "unalakleet": {
      "name": "Unalakleet",
      "lat": 63.87342552,
      "lng": -160.7880516,
      "population": 741,
      "iso2": "US",
      "timezone": "America/Anchorage"
    },
    "comallo": {
      "name": "Comallo",
      "lat": -41.03332355,
      "lng": -70.26657434,
      "population": 741,
      "iso2": "AR",
      "timezone": "America/Argentina/Salta"
    },
    "yerema": {
      "name": "Yerema",
      "lat": 60.38079632,
      "lng": 107.7794055,
      "population": 745,
      "iso2": "RU",
      "timezone": "Asia/Irkutsk"
    },
    "altata": {
      "name": "Altata",
      "lat": 24.63604509,
      "lng": -107.9162153,
      "population": 750,
      "iso2": "MX",
      "timezone": "America/Mazatlan"
    },
    "mountain village": {
      "name": "Mountain Village",
      "lat": 62.08552431,
      "lng": -163.729009,
      "population": 755,
      "iso2": "US",
      "timezone": "America/Nome"
    },
    "mohembo": {
      "name": "Mohembo",
      "lat": -18.29956907,
      "lng": 21.8000024,
      "population": 757,
      "iso2": "BW",
      "timezone": "Africa/Gaborone"
    },
    "taloyoak": {
      "name": "Taloyoak",
      "lat": 69.5333126,
      "lng": -93.53331954,
      "population": 774,
      "iso2": "CA",
      "timezone": "America/Cambridge_Bay"
    },
    "uelen": {
      "name": "Uelen",
      "lat": 66.15413931,
      "lng": -169.8105835,
      "population": 776,
      "iso2": "RU",
      "timezone": "Asia/Anadyr"
    },
    "bavaro": {
      "name": "Bavaro",
      "lat": 18.71700869,
      "lng": -68.44996688,
      "population": 795,
      "iso2": "DO",
      "timezone": "America/Santo_Domingo"
    },
    "calulo": {
      "name": "Calulo",
      "lat": -9.999610577,
      "lng": 14.90001013,
      "population": 795,
      "iso2": "AO",
      "timezone": "Africa/Luanda"
    },
    "watson lake": {
      "name": "Watson Lake",
      "lat": 60.1166264,
      "lng": -128.80003,
      "population": 802,
      "iso2": "CA",
      "timezone": "America/Whitehorse"
    },
    "nyimba": {
      "name": "Nyimba",
      "lat": -14.54951373,
      "lng": 30.80999508,
      "population": 814,
      "iso2": "ZM",
      "timezone": "Africa/Lusaka"
    },
    "la scie": {
      "name": "La Scie",
      "lat": 49.96701337,
      "lng": -55.58300033,
      "population": 817,
      "iso2": "CA",
      "timezone": "America/St_Johns"
    },
    "georgetown": {
      "name": "Georgetown",
      "lat": 6.801973693,
      "lng": -58.16702865,
      "population": 249683.5,
      "iso2": "GY",
      "timezone": "America/Guyana"
    },
    "vatican city": {
      "name": "Vatican City",
      "lat": 41.90001223,
      "lng": 12.44780839,
      "population": 832,
      "iso2": "VA",
      "timezone": "Europe/Rome"
    },
    "selawik": {
      "name": "Selawik",
      "lat": 66.60387901,
      "lng": -160.0093911,
      "population": 832,
      "iso2": "US",
      "timezone": "America/Anchorage"
    },
    "fort yukon": {
      "name": "Fort Yukon",
      "lat": 66.56468243,
      "lng": -145.2737789,
      "population": 833,
      "iso2": "US",
      "timezone": "America/Anchorage"
    },
    "coral harbour": {
      "name": "Coral Harbour",
      "lat": 64.15377016,
      "lng": -83.17658736,
      "population": 834,
      "iso2": "CA",
      "timezone": "America/Coral_Harbour"
    },
    "meningie": {
      "name": "Meningie",
      "lat": -35.69954059,
      "lng": 139.3333451,
      "population": 850,
      "iso2": "AU",
      "timezone": "Australia/Adelaide"
    },
    "baddeck": {
      "name": "Baddeck",
      "lat": 46.09998842,
      "lng": -60.75397669,
      "population": 852,
      "iso2": "CA",
      "timezone": "America/Halifax"
    },
    "luanza": {
      "name": "Luanza",
      "lat": -8.699586569,
      "lng": 28.69999467,
      "population": 861,
      "iso2": "CD",
      "timezone": "Africa/Lubumbashi"
    },
    "san juan de nicaragua": {
      "name": "San Juan de Nicaragua",
      "lat": 10.92040448,
      "lng": -83.69999211,
      "population": 863,
      "iso2": "NI",
      "timezone": "America/Managua"
    },
    "shamattawa": {
      "name": "Shamattawa",
      "lat": 55.85037518,
      "lng": -92.08327885,
      "population": 870,
      "iso2": "CA",
      "timezone": "America/Winnipeg"
    },
    "hoskins": {
      "name": "Hoskins",
      "lat": -5.474615459,
      "lng": 150.4099816,
      "population": 871,
      "iso2": "PG",
      "timezone": "Pacific/Port_Moresby"
    },
    "repulse bay": {
      "name": "Repulse Bay",
      "lat": 66.52946689,
      "lng": -86.28293502,
      "population": 874,
      "iso2": "CA",
      "timezone": "America/Rankin_Inlet"
    },
    "iracoubo": {
      "name": "Iracoubo",
      "lat": 5.480426452,
      "lng": -53.21999211,
      "population": 881,
      "iso2": "GF",
      "timezone": "America/Cayenne"
    },
    "chelyuskin": {
      "name": "Chelyuskin",
      "lat": 77.71697329,
      "lng": 104.2500085,
      "population": 885,
      "iso2": "RU",
      "timezone": "Asia/Krasnoyarsk"
    },
    "tuktoyaktuk": {
      "name": "Tuktoyaktuk",
      "lat": 69.45477459,
      "lng": -133.0492013,
      "population": 899.5,
      "iso2": "CA",
      "timezone": "America/Yellowknife"
    },
    "ouyen": {
      "name": "Ouyen",
      "lat": -35.06619424,
      "lng": 142.3166772,
      "population": 912,
      "iso2": "AU",
      "timezone": "Australia/Melbourne"
    },
    "yulara": {
      "name": "Yulara",
      "lat": -25.24054075,
      "lng": 130.9888932,
      "population": 930,
      "iso2": "AU",
      "timezone": "Australia/Darwin"
    },
    "dirj": {
      "name": "Dirj",
      "lat": 30.1679118,
      "lng": 10.45666378,
      "population": 931,
      "iso2": "LY",
      "timezone": "Africa/Tripoli"
    },
    "tarapoto": {
      "name": "Tarapoto",
      "lat": -6.50995278,
      "lng": -76.47996769,
      "population": 936,
      "iso2": "PE",
      "timezone": "America/Lima"
    },
    "govorovo": {
      "name": "Govorovo",
      "lat": 70.21135907,
      "lng": 125.9932808,
      "population": 943,
      "iso2": "RU",
      "timezone": "Asia/Yakutsk"
    },
    "cuevo": {
      "name": "Cuevo",
      "lat": -20.45003213,
      "lng": -63.52998295,
      "population": 953,
      "iso2": "BO",
      "timezone": "America/La_Paz"
    },
    "skagway": {
      "name": "Skagway",
      "lat": 59.45832033,
      "lng": -135.3138959,
      "population": 955,
      "iso2": "US",
      "timezone": "America/Juneau"
    },
    "jaque": {
      "name": "Jaque",
      "lat": 7.518958353,
      "lng": -78.16601465,
      "population": 955,
      "iso2": "PA",
      "timezone": "America/Panama"
    },
    "principe da beira": {
      "name": "Principe da Beira",
      "lat": -12.41667234,
      "lng": -64.41664718,
      "population": 956,
      "iso2": "BR",
      "timezone": "America/Porto_Velho"
    },
    "churchill": {
      "name": "Churchill",
      "lat": 58.76598533,
      "lng": -94.1659941,
      "population": 961.5,
      "iso2": "CA",
      "timezone": "America/Winnipeg"
    },
    "general eugenio alejandrino garay": {
      "name": "General Eugenio Alejandrino Garay",
      "lat": -20.51995034,
      "lng": -62.209986,
      "population": 972,
      "iso2": "PY",
      "timezone": "America/Asuncion"
    },
    "juina": {
      "name": "Juina",
      "lat": -11.3995768,
      "lng": -59.50002222,
      "population": 980,
      "iso2": "BR",
      "timezone": "America/Cuiaba"
    },
    "cacolo": {
      "name": "Cacolo",
      "lat": -10.14962726,
      "lng": 19.2600024,
      "population": 984,
      "iso2": "AO",
      "timezone": "Africa/Luanda"
    },
    "yelimane": {
      "name": "Yelimane",
      "lat": 15.13371319,
      "lng": -10.56662663,
      "population": 988,
      "iso2": "ML",
      "timezone": "Africa/Bamako"
    },
    "kotlit": {
      "name": "Kotlit",
      "lat": 63.03458783,
      "lng": -163.5532833,
      "population": 1002,
      "iso2": "US",
      "timezone": "America/Nome"
    },
    "norseman": {
      "name": "Norseman",
      "lat": -32.20001259,
      "lng": 121.7666137,
      "population": 1004,
      "iso2": "AU",
      "timezone": "Australia/Perth"
    },
    "sica sica": {
      "name": "Sica Sica",
      "lat": -17.33001585,
      "lng": -67.72998499,
      "population": 1006,
      "iso2": "BO",
      "timezone": "America/La_Paz"
    },
    "besalampy": {
      "name": "Besalampy",
      "lat": -16.74953449,
      "lng": 44.48332068,
      "population": 1022,
      "iso2": "MG",
      "timezone": "Indian/Antananarivo"
    },
    "wallace": {
      "name": "Wallace",
      "lat": 47.47421979,
      "lng": -115.9268881,
      "population": 1028,
      "iso2": "US",
      "timezone": "America/Los_Angeles"
    },
    "wagin": {
      "name": "Wagin",
      "lat": -33.29958372,
      "lng": 117.3499841,
      "population": 1037.5,
      "iso2": "AU",
      "timezone": "Australia/Perth"
    },
    "soroti": {
      "name": "Soroti",
      "lat": 1.710398172,
      "lng": 33.60000565,
      "population": 1038,
      "iso2": "UG",
      "timezone": "Africa/Kampala"
    },
    "fulin": {
      "name": "Fulin",
      "lat": 29.35000307,
      "lng": 102.7167171,
      "population": 1049,
      "iso2": "CN",
      "timezone": "Asia/Chongqing"
    },
    "omolon": {
      "name": "Omolon",
      "lat": 65.24998232,
      "lng": 160.5000118,
      "population": 1050,
      "iso2": "RU",
      "timezone": "Asia/Anadyr"
    },
    "denali park": {
      "name": "Denali Park",
      "lat": 63.73309816,
      "lng": -148.9140994,
      "population": 1063,
      "iso2": "US",
      "timezone": "America/Anchorage"
    },
    "argentia": {
      "name": "Argentia",
      "lat": 47.30043194,
      "lng": -53.98999679,
      "population": 1063,
      "iso2": "CA",
      "timezone": "America/St_Johns"
    },
    "barcaldine": {
      "name": "Barcaldine",
      "lat": -23.56617267,
      "lng": 145.2833695,
      "population": 1068,
      "iso2": "AU",
      "timezone": "Australia/Brisbane"
    },
    "grand canyon": {
      "name": "Grand Canyon",
      "lat": 36.05478762,
      "lng": -112.1385922,
      "population": 1068.5,
      "iso2": "US",
      "timezone": "America/Phoenix"
    },
    "fort mcpherson": {
      "name": "Fort McPherson",
      "lat": 67.49152508,
      "lng": -134.8949809,
      "population": 1069,
      "iso2": "CA",
      "timezone": "America/Yellowknife"
    },
    "talkeetna": {
      "name": "Talkeetna",
      "lat": 62.3237785,
      "lng": -150.1094269,
      "population": 1078,
      "iso2": "US",
      "timezone": "America/Anchorage"
    },
    "exmouth": {
      "name": "Exmouth",
      "lat": -21.93109987,
      "lng": 114.1233469,
      "population": 1085,
      "iso2": "AU",
      "timezone": "Australia/Perth"
    },
    "klyuchi": {
      "name": "Klyuchi",
      "lat": 56.29996014,
      "lng": 160.8500162,
      "population": 1089,
      "iso2": "RU",
      "timezone": "Asia/Kamchatka"
    },
    "susques": {
      "name": "Susques",
      "lat": -23.41667275,
      "lng": -66.4833169,
      "population": 1093,
      "iso2": "AR",
      "timezone": "America/Argentina/Jujuy"
    },
    "gjoa haven": {
      "name": "Gjoa Haven",
      "lat": 68.63329002,
      "lng": -95.91666244,
      "population": 1109,
      "iso2": "CA",
      "timezone": "America/Cambridge_Bay"
    },
    "dickson": {
      "name": "Dickson",
      "lat": 73.50697186,
      "lng": 80.54509884,
      "population": 1113,
      "iso2": "RU",
      "timezone": "Asia/Krasnoyarsk"
    },
    "mirbat": {
      "name": "Mirbat",
      "lat": 16.99243695,
      "lng": 54.69179317,
      "population": 1120,
      "iso2": "OM",
      "timezone": "Asia/Muscat"
    },
    "puerto acosta": {
      "name": "Puerto Acosta",
      "lat": -15.49958494,
      "lng": -69.16666732,
      "population": 1123,
      "iso2": "BO",
      "timezone": "America/La_Paz"
    },
    "upernavik": {
      "name": "Upernavik",
      "lat": 72.70936669,
      "lng": -56.14167532,
      "population": 1129,
      "iso2": "GL",
      "timezone": "America/Godthab"
    },
    "kaabong": {
      "name": "Kaabong",
      "lat": 3.520391051,
      "lng": 34.12002559,
      "population": 1137,
      "iso2": "UG",
      "timezone": "Africa/Kampala"
    },
    "los blancos": {
      "name": "Los Blancos",
      "lat": -23.59960732,
      "lng": -62.60003972,
      "population": 1145,
      "iso2": "AR",
      "timezone": "America/Argentina/Salta"
    },
    "sixaola": {
      "name": "Sixaola",
      "lat": 9.520386575,
      "lng": -82.61998051,
      "population": 1150,
      "iso2": "CR",
      "timezone": "America/Costa_Rica"
    },
    "nain": {
      "name": "Nain",
      "lat": 56.54735147,
      "lng": -61.6860454,
      "population": 1151,
      "iso2": "CA",
      "timezone": "America/Goose_Bay"
    },
    "santo antonio": {
      "name": "Santo Antonio",
      "lat": 1.645002051,
      "lng": 7.412004483,
      "population": 1156,
      "iso2": "ST",
      "timezone": "Africa/Sao_Tome"
    },
    "oatlands": {
      "name": "Oatlands",
      "lat": -42.29960285,
      "lng": 147.3666015,
      "population": 1157,
      "iso2": "AU",
      "timezone": "Australia/Hobart"
    },
    "winton": {
      "name": "Winton",
      "lat": -22.39962889,
      "lng": 143.0332743,
      "population": 1157,
      "iso2": "AU",
      "timezone": "Australia/Brisbane"
    },
    "nacunday": {
      "name": "Nacunday",
      "lat": -26.02002806,
      "lng": -54.76994918,
      "population": 1185,
      "iso2": "PY",
      "timezone": "America/Asuncion"
    },
    "buluko": {
      "name": "Buluko",
      "lat": -0.756998889,
      "lng": 28.52800254,
      "population": 1192,
      "iso2": "CD",
      "timezone": "Africa/Lubumbashi"
    },
    "capitan pablo lagerenza": {
      "name": "Capitan Pablo Lagerenza",
      "lat": -19.91611123,
      "lng": -60.78327722,
      "population": 1200,
      "iso2": "PY",
      "timezone": "America/Asuncion"
    },
    "san rafael": {
      "name": "San Rafael",
      "lat": -34.60002114,
      "lng": -68.33333317,
      "population": 79523.5,
      "iso2": "AR",
      "timezone": "America/Argentina/Mendoza"
    },
    "cloncurry": {
      "name": "Cloncurry",
      "lat": -20.69999103,
      "lng": 140.4999922,
      "population": 1202,
      "iso2": "AU",
      "timezone": "Australia/Brisbane"
    },
    "nipigon": {
      "name": "Nipigon",
      "lat": 49.01704551,
      "lng": -88.24997278,
      "population": 1204,
      "iso2": "CA",
      "timezone": "America/Nipigon"
    },
    "celeken": {
      "name": "Celeken",
      "lat": 39.43615488,
      "lng": 53.12259119,
      "population": 1206,
      "iso2": "TM",
      "timezone": "Asia/Ashgabat"
    },
    "halls creek": {
      "name": "Halls Creek",
      "lat": -18.26670286,
      "lng": 127.7667126,
      "population": 1209,
      "iso2": "AU",
      "timezone": "Australia/Perth"
    },
    "quissico": {
      "name": "Quissico",
      "lat": -24.72568846,
      "lng": 34.765981,
      "population": 1210,
      "iso2": "MZ",
      "timezone": "Africa/Maputo"
    },
    "port denison": {
      "name": "Port Denison",
      "lat": -29.28282632,
      "lng": 114.9166442,
      "population": 1213,
      "iso2": "AU",
      "timezone": "Australia/Perth"
    },
    "las lajas": {
      "name": "Las Lajas",
      "lat": -38.51626788,
      "lng": -70.36659408,
      "population": 1218,
      "iso2": "AR",
      "timezone": "America/Argentina/Salta"
    },
    "longyearbyen": {
      "name": "Longyearbyen",
      "lat": 78.21668439,
      "lng": 15.5499963,
      "population": 1232,
      "iso2": "SJ",
      "timezone": "Arctic/Longyearbyen"
    },
    "kuujjuarapik": {
      "name": "Kuujjuarapik",
      "lat": 55.28149518,
      "lng": -77.76583236,
      "population": 1243,
      "iso2": "CA",
      "timezone": "America/Montreal"
    },
    "lake louise": {
      "name": "Lake Louise",
      "lat": 51.43369387,
      "lng": -116.1832807,
      "population": 1248,
      "iso2": "CA",
      "timezone": "America/Edmonton"
    },
    "san vicente del caguan": {
      "name": "San Vicente del Caguan",
      "lat": 2.070376199,
      "lng": -74.64002832,
      "population": 1250,
      "iso2": "CO",
      "timezone": "America/Bogota"
    },
    "ceduna": {
      "name": "Ceduna",
      "lat": -32.09913464,
      "lng": 133.6622674,
      "population": 1252.5,
      "iso2": "AU",
      "timezone": "Australia/Adelaide"
    },
    "villa rumipal": {
      "name": "Villa Rumipal",
      "lat": -32.18332111,
      "lng": -64.48328394,
      "population": 1269,
      "iso2": "AR",
      "timezone": "America/Argentina/Cordoba"
    },
    "kuujjuaq": {
      "name": "Kuujjuaq",
      "lat": 58.10000531,
      "lng": -68.39999577,
      "population": 1273,
      "iso2": "CA",
      "timezone": "America/Montreal"
    },
    "gillam": {
      "name": "Gillam",
      "lat": 56.34998293,
      "lng": -94.69996668,
      "population": 1281,
      "iso2": "CA",
      "timezone": "America/Winnipeg"
    },
    "ayan": {
      "name": "Ayan",
      "lat": 56.45424113,
      "lng": 138.1673305,
      "population": 1286,
      "iso2": "RU",
      "timezone": "Asia/Vladivostok"
    },
    "geraldton": {
      "name": "Geraldton",
      "lat": -28.76663043,
      "lng": 114.5999711,
      "population": 27065,
      "iso2": "AU",
      "timezone": "Australia/Perth"
    },
    "uummannaq": {
      "name": "Uummannaq",
      "lat": 70.67502343,
      "lng": -52.12293443,
      "population": 1299,
      "iso2": "GL",
      "timezone": "America/Godthab"
    },
    "kugluktuk": {
      "name": "Kugluktuk",
      "lat": 67.79866282,
      "lng": -115.1253504,
      "population": 1302,
      "iso2": "CA",
      "timezone": "America/Cambridge_Bay"
    },
    "chumikan": {
      "name": "Chumikan",
      "lat": 54.7113945,
      "lng": 135.3145141,
      "population": 1305,
      "iso2": "RU",
      "timezone": "Asia/Vladivostok"
    },
    "tarutung": {
      "name": "Tarutung",
      "lat": 2.017071959,
      "lng": 98.96666174,
      "population": 1305,
      "iso2": "ID",
      "timezone": "Asia/Jakarta"
    },
    "cangamba": {
      "name": "Cangamba",
      "lat": -13.69959145,
      "lng": 19.86001745,
      "population": 1307,
      "iso2": "AO",
      "timezone": "Africa/Luanda"
    },
    "fulacunda": {
      "name": "Fulacunda",
      "lat": 11.77299899,
      "lng": -15.19499654,
      "population": 1311,
      "iso2": "GW",
      "timezone": "Africa/Bissau"
    },
    "lubutu": {
      "name": "Lubutu",
      "lat": -0.732889385,
      "lng": 26.583328,
      "population": 1313,
      "iso2": "CD",
      "timezone": "Africa/Lubumbashi"
    },
    "dawson city": {
      "name": "Dawson City",
      "lat": 64.0666437,
      "lng": -139.4166687,
      "population": 1319,
      "iso2": "CA",
      "timezone": "America/Dawson"
    },
    "pangnirtung": {
      "name": "Pangnirtung",
      "lat": 66.13331341,
      "lng": -65.75002832,
      "population": 1320,
      "iso2": "CA",
      "timezone": "America/Pangnirtung"
    },
    "cape dorset": {
      "name": "Cape Dorset",
      "lat": 64.31251972,
      "lng": -76.53857863,
      "population": 1326,
      "iso2": "CA",
      "timezone": "America/Iqaluit"
    },
    "qardho": {
      "name": "Qardho",
      "lat": 9.500413634,
      "lng": 49.16598059,
      "population": 1341,
      "iso2": "SO",
      "timezone": "Africa/Mogadishu"
    },
    "qasigiannguit": {
      "name": "Qasigiannguit",
      "lat": 68.81927014,
      "lng": -51.17851854,
      "population": 1341,
      "iso2": "GL",
      "timezone": "America/Godthab"
    },
    "peterborough": {
      "name": "Peterborough",
      "lat": 52.58041974,
      "lng": -0.249995363,
      "population": 140141,
      "iso2": "GB",
      "timezone": "Europe/London"
    },
    "cobalt": {
      "name": "Cobalt",
      "lat": 47.38370852,
      "lng": -79.68331222,
      "population": 1372,
      "iso2": "CA",
      "timezone": "America/Toronto"
    },
    "verkhoyansk": {
      "name": "Verkhoyansk",
      "lat": 67.54470013,
      "lng": 133.3849743,
      "population": 1388,
      "iso2": "RU",
      "timezone": "Asia/Vladivostok"
    },
    "tombstone": {
      "name": "Tombstone",
      "lat": 31.71314048,
      "lng": -110.066884,
      "population": 1396.5,
      "iso2": "US",
      "timezone": "America/Phoenix"
    },
    "bella bella": {
      "name": "Bella Bella",
      "lat": 52.14840476,
      "lng": -128.1172809,
      "population": 1400,
      "iso2": "CA",
      "timezone": "America/Vancouver"
    },
    "tsau": {
      "name": "Tsau",
      "lat": -20.15961058,
      "lng": 22.45996212,
      "population": 1409,
      "iso2": "BW",
      "timezone": "Africa/Gaborone"
    },
    "chibia": {
      "name": "Chibia",
      "lat": -15.1896297,
      "lng": 13.69000647,
      "population": 1411,
      "iso2": "AO",
      "timezone": "Africa/Luanda"
    },
    "thessalon": {
      "name": "Thessalon",
      "lat": 46.24997927,
      "lng": -83.55000126,
      "population": 1416.5,
      "iso2": "CA",
      "timezone": "America/Toronto"
    },
    "machinga": {
      "name": "Machinga",
      "lat": -14.9666667,
      "lng": 35.5166667,
      "population": 1418,
      "iso2": "MW",
      "timezone": "Africa/Blantyre"
    },
    "ayoun el atrous": {
      "name": "Ayoun el Atrous",
      "lat": 16.66659121,
      "lng": -9.616658774,
      "population": 1423,
      "iso2": "MR",
      "timezone": "Africa/Nouakchott"
    },
    "john day": {
      "name": "John Day",
      "lat": 44.41652529,
      "lng": -118.9520264,
      "population": 1437.5,
      "iso2": "US",
      "timezone": "America/Los_Angeles"
    },
    "gingin": {
      "name": "Gingin",
      "lat": -31.34957355,
      "lng": 115.9000468,
      "population": 1446,
      "iso2": "AU",
      "timezone": "Australia/Perth"
    },
    "kumaka": {
      "name": "Kumaka",
      "lat": 3.900393696,
      "lng": -58.38001306,
      "population": 1467.5,
      "iso2": "GY",
      "timezone": "America/Guyana"
    },
    "totness": {
      "name": "Totness",
      "lat": 5.890427265,
      "lng": -56.31998377,
      "population": 1468,
      "iso2": "SR",
      "timezone": "America/Paramaribo"
    },
    "lokhwabe": {
      "name": "Lokhwabe",
      "lat": -24.16959837,
      "lng": 21.83002641,
      "population": 1473,
      "iso2": "BW",
      "timezone": "Africa/Gaborone"
    },
    "cap-chat": {
      "name": "Cap-Chat",
      "lat": 49.09996035,
      "lng": -66.68330469,
      "population": 1475,
      "iso2": "CA",
      "timezone": "America/Montreal"
    },
    "alexander bay": {
      "name": "Alexander Bay",
      "lat": -28.60834552,
      "lng": 16.50332312,
      "population": 1476,
      "iso2": "ZA",
      "timezone": "Africa/Johannesburg"
    },
    "cambridge bay": {
      "name": "Cambridge Bay",
      "lat": 69.11695559,
      "lng": -105.0333153,
      "population": 1477,
      "iso2": "CA",
      "timezone": "America/Cambridge_Bay"
    },
    "dawwah": {
      "name": "Dawwah",
      "lat": 20.63301577,
      "lng": 58.90802161,
      "population": 1485.5,
      "iso2": "OM",
      "timezone": "Asia/Muscat"
    },
    "nuqui": {
      "name": "Nuqui",
      "lat": 5.685180092,
      "lng": -77.27454844,
      "population": 1487,
      "iso2": "CO",
      "timezone": "America/Bogota"
    },
    "bu'aale": {
      "name": "Bu'aale",
      "lat": 1.083303017,
      "lng": 42.58330253,
      "population": 1490,
      "iso2": "SO",
      "timezone": "Africa/Mogadishu"
    },
    "tajarhi": {
      "name": "Tajarhi",
      "lat": 24.3703587,
      "lng": 14.47083736,
      "population": 1498,
      "iso2": "LY",
      "timezone": "Africa/Tripoli"
    },
    "chibemba": {
      "name": "Chibemba",
      "lat": -15.74959552,
      "lng": 14.0800085,
      "population": 1502,
      "iso2": "AO",
      "timezone": "Africa/Luanda"
    },
    "penola": {
      "name": "Penola",
      "lat": -37.38295205,
      "lng": 140.8166654,
      "population": 1513,
      "iso2": "AU",
      "timezone": "Australia/Adelaide"
    },
    "eldikan": {
      "name": "Eldikan",
      "lat": 60.80002138,
      "lng": 135.1833142,
      "population": 1516,
      "iso2": "RU",
      "timezone": "Asia/Khandyga"
    },
    "ust kuyga": {
      "name": "Ust Kuyga",
      "lat": 70.01705568,
      "lng": 135.6000329,
      "population": 1517,
      "iso2": "RU",
      "timezone": "Asia/Vladivostok"
    },
    "sierra colorado": {
      "name": "Sierra Colorado",
      "lat": -40.58286009,
      "lng": -67.79998071,
      "population": 1522,
      "iso2": "AR",
      "timezone": "America/Argentina/Salta"
    },
    "kipili": {
      "name": "Kipili",
      "lat": -7.432893861,
      "lng": 30.59998205,
      "population": 1533,
      "iso2": "TZ",
      "timezone": "Africa/Dar_es_Salaam"
    },
    "geita": {
      "name": "Geita",
      "lat": -2.866195863,
      "lng": 32.16660478,
      "population": 1536,
      "iso2": "TZ",
      "timezone": "Africa/Dar_es_Salaam"
    },
    "manja": {
      "name": "Manja",
      "lat": -21.43291787,
      "lng": 44.33325232,
      "population": 1536,
      "iso2": "MG",
      "timezone": "Indian/Antananarivo"
    },
    "kalbarri": {
      "name": "Kalbarri",
      "lat": -27.66618081,
      "lng": 114.1666642,
      "population": 1537,
      "iso2": "AU",
      "timezone": "Australia/Perth"
    },
    "alto rio sanguer": {
      "name": "Alto Rio Sanguer",
      "lat": -45.03328611,
      "lng": -70.83328394,
      "population": 1548,
      "iso2": "AR",
      "timezone": "America/Argentina/Catamarca"
    },
    "pond inlet": {
      "name": "Pond Inlet",
      "lat": 72.68498069,
      "lng": -78.00005579,
      "population": 1549,
      "iso2": "CA",
      "timezone": "America/Iqaluit"
    },
    "saint-georges": {
      "name": "Saint-Georges",
      "lat": 46.117145,
      "lng": -70.66665328,
      "population": 26149,
      "iso2": "CA",
      "timezone": "America/Montreal"
    },
    "matagami": {
      "name": "Matagami",
      "lat": 49.75038576,
      "lng": -77.63328231,
      "population": 1574.5,
      "iso2": "CA",
      "timezone": "America/Montreal"
    },
    "chiradzulu": {
      "name": "Chiradzulu",
      "lat": -15.7,
      "lng": 35.1833333,
      "population": 1580,
      "iso2": "MW",
      "timezone": "Africa/Blantyre"
    },
    "baker lake": {
      "name": "Baker Lake",
      "lat": 64.31699017,
      "lng": -96.01665633,
      "population": 1584,
      "iso2": "CA",
      "timezone": "America/Rankin_Inlet"
    },
    "little current": {
      "name": "Little Current",
      "lat": 45.96702496,
      "lng": -81.93332992,
      "population": 1595,
      "iso2": "CA",
      "timezone": "America/Toronto"
    },
    "inukjuak": {
      "name": "Inukjuak",
      "lat": 58.47000856,
      "lng": -78.13599064,
      "population": 1597,
      "iso2": "CA",
      "timezone": "America/Montreal"
    },
    "trancas": {
      "name": "Trancas",
      "lat": -26.21665688,
      "lng": -65.28331262,
      "population": 1599,
      "iso2": "AR",
      "timezone": "America/Argentina/Tucuman"
    },
    "igloolik": {
      "name": "Igloolik",
      "lat": 69.25653506,
      "lng": -81.79359213,
      "population": 1612,
      "iso2": "CA",
      "timezone": "America/Iqaluit"
    },
    "mato grosso": {
      "name": "Mato Grosso",
      "lat": -15.00002887,
      "lng": -59.95002059,
      "population": 1612,
      "iso2": "BR",
      "timezone": "America/Cuiaba"
    },
    "cordova": {
      "name": "Cordova",
      "lat": 60.5427761,
      "lng": -145.7574962,
      "population": 1622.5,
      "iso2": "US",
      "timezone": "America/Anchorage"
    },
    "hudur": {
      "name": "Hudur",
      "lat": 4.183298973,
      "lng": 43.86670261,
      "population": 1639,
      "iso2": "SO",
      "timezone": "Africa/Mogadishu"
    },
    "tofino": {
      "name": "Tofino",
      "lat": 49.15207146,
      "lng": -125.9031487,
      "population": 1655,
      "iso2": "CA",
      "timezone": "America/Vancouver"
    },
    "queenstown": {
      "name": "Queenstown",
      "lat": -31.89961749,
      "lng": 26.8800024,
      "population": 96274.5,
      "iso2": "ZA",
      "timezone": "Africa/Johannesburg"
    },
    "wrangell": {
      "name": "Wrangell",
      "lat": 56.47126752,
      "lng": -132.3715949,
      "population": 1658.5,
      "iso2": "US",
      "timezone": "America/Sitka"
    },
    "labutta": {
      "name": "Labutta",
      "lat": 16.16189333,
      "lng": 94.70144405,
      "population": 1667,
      "iso2": "MM",
      "timezone": "Asia/Rangoon"
    },
    "omboue": {
      "name": "Omboue",
      "lat": -1.566223532,
      "lng": 9.249967406,
      "population": 1667,
      "iso2": "GA",
      "timezone": "Africa/Libreville"
    },
    "scottsdale": {
      "name": "Scottsdale",
      "lat": 33.69234784,
      "lng": -111.8680402,
      "population": 15401,
      "iso2": "US",
      "timezone": "America/Phoenix"
    },
    "hofn": {
      "name": "Hofn",
      "lat": 64.2723151,
      "lng": -15.21385946,
      "population": 1695,
      "iso2": "IS",
      "timezone": "Atlantic/Reykjavik"
    },
    "dillingham": {
      "name": "Dillingham",
      "lat": 59.05656031,
      "lng": -158.4803121,
      "population": 1710,
      "iso2": "US",
      "timezone": "America/Anchorage"
    },
    "el qasr": {
      "name": "El Qasr",
      "lat": 25.70043256,
      "lng": 28.88329097,
      "population": 1716,
      "iso2": "EG",
      "timezone": "Africa/Cairo"
    },
    "moosonee": {
      "name": "Moosonee",
      "lat": 51.28060244,
      "lng": -80.65798141,
      "population": 1725,
      "iso2": "CA",
      "timezone": "America/Toronto"
    },
    "nasir": {
      "name": "Nasir",
      "lat": 8.600391051,
      "lng": 33.06660152,
      "population": 1741,
      "iso2": "SS",
      "timezone": "Africa/Juba"
    },
    "al jaghbub": {
      "name": "Al Jaghbub",
      "lat": 29.75039207,
      "lng": 24.51658077,
      "population": 1744,
      "iso2": "LY",
      "timezone": "Africa/Tripoli"
    },
    "provideniya": {
      "name": "Provideniya",
      "lat": 64.4234953,
      "lng": -173.2257937,
      "population": 1746.5,
      "iso2": "RU",
      "timezone": "Asia/Anadyr"
    },
    "nokaneng": {
      "name": "Nokaneng",
      "lat": -19.66961465,
      "lng": 22.26999955,
      "population": 1763,
      "iso2": "BW",
      "timezone": "Africa/Gaborone"
    },
    "capitol hill": {
      "name": "Capitol Hill",
      "lat": 15.21125368,
      "lng": 145.7505761,
      "population": 1764,
      "iso2": "MP",
      "timezone": "Pacific/Saipan"
    },
    "red lake": {
      "name": "Red Lake",
      "lat": 51.03369244,
      "lng": -93.83330123,
      "population": 1765,
      "iso2": "CA",
      "timezone": "America/Winnipeg"
    },
    "mount barker": {
      "name": "Mount Barker",
      "lat": -34.632784,
      "lng": 117.6666056,
      "population": 1771.5,
      "iso2": "AU",
      "timezone": "Australia/Perth"
    },
    "puerto villarroel": {
      "name": "Puerto Villarroel",
      "lat": -16.87004393,
      "lng": -64.78001001,
      "population": 1778,
      "iso2": "BO",
      "timezone": "America/La_Paz"
    },
    "calais": {
      "name": "Calais",
      "lat": 50.95041587,
      "lng": 1.833314167,
      "population": 83317,
      "iso2": "FR",
      "timezone": "Europe/Paris"
    },
    "borgarnes": {
      "name": "Borgarnes",
      "lat": 64.56950277,
      "lng": -21.86232219,
      "population": 1783,
      "iso2": "IS",
      "timezone": "Atlantic/Reykjavik"
    },
    "novy port": {
      "name": "Novy Port",
      "lat": 67.69833417,
      "lng": 72.92830277,
      "population": 1790,
      "iso2": "RU",
      "timezone": "Asia/Yekaterinburg"
    },
    "tumby bay": {
      "name": "Tumby Bay",
      "lat": -34.38292845,
      "lng": 136.0833109,
      "population": 1791,
      "iso2": "AU",
      "timezone": "Australia/Adelaide"
    },
    "al bayda": {
      "name": "Al Bayda",
      "lat": 13.9789981,
      "lng": 45.57400265,
      "population": 37821,
      "iso2": "YE",
      "timezone": "Asia/Aden"
    },
    "van horn": {
      "name": "Van Horn",
      "lat": 31.04248374,
      "lng": -104.8322423,
      "population": 1797,
      "iso2": "US",
      "timezone": "America/Chicago"
    },
    "attawapiskat": {
      "name": "Attawapiskat",
      "lat": 52.91662661,
      "lng": -82.43332524,
      "population": 1802,
      "iso2": "CA",
      "timezone": "America/Toronto"
    },
    "yamba": {
      "name": "Yamba",
      "lat": -29.42299136,
      "lng": 153.353312,
      "population": 1806,
      "iso2": "AU",
      "timezone": "Australia/Sydney"
    },
    "monticello": {
      "name": "Monticello",
      "lat": 37.87178265,
      "lng": -109.3421995,
      "population": 1811.5,
      "iso2": "US",
      "timezone": "America/Denver"
    },
    "tom price": {
      "name": "Tom Price",
      "lat": -22.69346108,
      "lng": 117.7930578,
      "population": 1822,
      "iso2": "AU",
      "timezone": "Australia/Perth"
    },
    "egilsstaðir": {
      "name": "Egilsstaðir",
      "lat": 65.26742312,
      "lng": -14.3949976,
      "population": 1822.5,
      "iso2": "IS",
      "timezone": "Atlantic/Reykjavik"
    },
    "paso rio mayo": {
      "name": "Paso Rio Mayo",
      "lat": -45.68337563,
      "lng": -70.26657434,
      "population": 1825,
      "iso2": "AR",
      "timezone": "America/Argentina/Catamarca"
    },
    "tasiilaq": {
      "name": "Tasiilaq",
      "lat": 65.60186934,
      "lng": -37.6337371,
      "population": 1829,
      "iso2": "GL",
      "timezone": "America/Godthab"
    },
    "la palma": {
      "name": "La Palma",
      "lat": 8.398181172,
      "lng": -78.14022811,
      "population": 1845,
      "iso2": "PA",
      "timezone": "America/Panama"
    },
    "beringovskiy": {
      "name": "Beringovskiy",
      "lat": 63.0654645,
      "lng": 179.3066674,
      "population": 1861,
      "iso2": "RU",
      "timezone": "Asia/Anadyr"
    },
    "paamiut": {
      "name": "Paamiut",
      "lat": 62.00410237,
      "lng": -49.63507012,
      "population": 1862,
      "iso2": "GL",
      "timezone": "America/Godthab"
    },
    "arviat": {
      "name": "Arviat",
      "lat": 61.10859211,
      "lng": -94.05860672,
      "population": 1868,
      "iso2": "CA",
      "timezone": "America/Rankin_Inlet"
    },
    "taedong": {
      "name": "Taedong",
      "lat": 40.61709312,
      "lng": 125.4501098,
      "population": 1884,
      "iso2": "KP",
      "timezone": "Asia/Pyongyang"
    },
    "coro coro": {
      "name": "Coro Coro",
      "lat": -17.1696122,
      "lng": -68.44996688,
      "population": 1884,
      "iso2": "BO",
      "timezone": "America/La_Paz"
    },
    "yazdan": {
      "name": "Yazdan",
      "lat": 33.50649355,
      "lng": 60.89379187,
      "population": 1894,
      "iso2": "IR",
      "timezone": "Asia/Tehran"
    },
    "westport": {
      "name": "Westport",
      "lat": -41.77443223,
      "lng": 171.5666665,
      "population": 1899,
      "iso2": "NZ",
      "timezone": "Pacific/Auckland"
    },
    "charleville": {
      "name": "Charleville",
      "lat": -26.40000486,
      "lng": 146.2500288,
      "population": 1900,
      "iso2": "AU",
      "timezone": "Australia/Brisbane"
    },
    "hudson bay": {
      "name": "Hudson Bay",
      "lat": 52.8504291,
      "lng": -102.3832961,
      "population": 1909,
      "iso2": "CA",
      "timezone": "America/Regina"
    },
    "saskylakh": {
      "name": "Saskylakh",
      "lat": 71.91662966,
      "lng": 114.0833101,
      "population": 1920,
      "iso2": "RU",
      "timezone": "Asia/Yakutsk"
    },
    "abuna": {
      "name": "Abuna",
      "lat": -9.69539142,
      "lng": -65.35971623,
      "population": 1929,
      "iso2": "BR",
      "timezone": "America/Porto_Velho"
    },
    "bukachacha": {
      "name": "Bukachacha",
      "lat": 52.98334088,
      "lng": 116.9166255,
      "population": 1934.5,
      "iso2": "RU",
      "timezone": "Asia/Chita"
    },
    "unalaska": {
      "name": "Unalaska",
      "lat": 53.868584,
      "lng": -166.5316028,
      "population": 1938.5,
      "iso2": "US",
      "timezone": "America/Nome"
    },
    "lehututu": {
      "name": "Lehututu",
      "lat": -23.96961058,
      "lng": 21.87002397,
      "population": 1942,
      "iso2": "BW",
      "timezone": "Africa/Gaborone"
    },
    "amapa": {
      "name": "Amapa",
      "lat": 2.049989847,
      "lng": -50.80001062,
      "population": 1947,
      "iso2": "BR",
      "timezone": "America/Belem"
    },
    "ísafjörður": {
      "name": "Ísafjörður",
      "lat": 66.08331647,
      "lng": -23.14996708,
      "population": 1949.5,
      "iso2": "IS",
      "timezone": "Atlantic/Reykjavik"
    },